"Combined_Key","KeyOk","Address","Alt_Name","Beds","City","Country","County","COUNTYFIPS","Helipad","Id","Latitude","Longitude","NAICS_CODE","NAICS_DESC","Name","Objectid","Owner","Population","Source","Sourcedate","ST_FIPS","State","State Name","State_Id","Status","Telephone","Trauma","Ttl_Staff","Type","Val_Date","Val_Method","Website","Zip","Zip4"
"Kenai Peninsula, Alaska, US",,"417 1St Avenue",,"46","Seward","USA","Kenai Peninsula","02122","Y","0000599664","60.1050581820001","-149.445835369","622110","General Medical And Surgical Hospitals","Alaska","4322","Non-Profit","46","http://dhss.alaska.gov/dph/HealthPlanning/Pages/SafetyNetDirectory.aspx","2018-08-09T00:00:00.000Z","02","AK","Alaska",,"OPEN","(907) 224-5205","LEVEL IV",,"GENERAL ACUTE CARE","2014-02-10T00:00:00.000Z","IMAGERY","www.providence.org/alaska/default.htm","99664",
"Anchorage, Alaska, US",,"5955 Zeamer Ave.",,"57","Anchorage","USA","Anchorage","02020","Y","0000999506","61.2353454350001","-149.744885008","622110","General Medical And Surgical Hospitals","Alaska","3750","Government - Federal","57","http://www.tricare.mil/mtf","2019-04-02T00:00:00.000Z","02","AK","Alaska",,"OPEN","(907) 755-2274","LEVEL IV",,"MILITARY","2014-02-10T00:00:00.000Z","IMAGERY/OTHER","www.elmendorf.af.mil/","99506",
"Petersburg, Alaska, US",,"310 Bennet Street",,"22","Wrangell","USA","Petersburg","02280","N","0001999929","56.4717823870001","-132.375803899","622110","General Medical And Surgical Hospitals","Alaska","4323","Government - Local","22","http://dhss.alaska.gov/dph/HealthPlanning/Pages/SafetyNetDirectory.aspx","2018-08-09T00:00:00.000Z","02","AK","Alaska",,"OPEN","(907) 874-7000","LEVEL IV",,"GENERAL ACUTE CARE","2013-10-28T00:00:00.000Z","IMAGERY","http://www.wrangellmedicalcenter.com/","99929",
"Kenai Peninsula, Alaska, US",,"4300 Bartlett Street",,"50","Homer","USA","Kenai Peninsula","02122","Y","0000399603","59.6524701160001","-151.550129834","622110","General Medical And Surgical Hospitals","Alaska","7243","Government - District/Authority","50","http://dhss.alaska.gov/dph/HealthPlanning/Pages/SafetyNetDirectory.aspx","2018-08-09T00:00:00.000Z","02","AK","Alaska",,"OPEN","(907) 235-8101","LEVEL IV",,"CRITICAL ACCESS","2014-02-10T00:00:00.000Z","IMAGERY","http://www.sphosp.com/","99603",
"Anchorage, Alaska, US",,"3200 Providence Drive",,"371","Anchorage","USA","Anchorage","02020","Y","0001099508","61.1887628800001","-149.819958703","622110","General Medical And Surgical Hospitals","Alaska","7242","Non-Profit","371","http://dhss.alaska.gov/dph/HealthPlanning/Pages/SafetyNetDirectory.aspx","2018-08-09T00:00:00.000Z","02","AK","Alaska",,"OPEN","(907) 562-2211","LEVEL II",,"GENERAL ACUTE CARE","2014-02-10T00:00:00.000Z","IMAGERY/OTHER","www.providence.org/alaska/default.htm","99508",
"Anchorage, Alaska, US",,"2801 Debarr Road",,"132","Anchorage","USA","Anchorage","02020","Y","0000899508","61.2107391420001","-149.82898817","622110","General Medical And Surgical Hospitals","Alaska","7241","Proprietary","132","http://dhss.alaska.gov/dph/HealthPlanning/Pages/SafetyNetDirectory.aspx","2018-08-09T00:00:00.000Z","02","AK","Alaska",,"OPEN","(907) 276-1131","NOT DESIGNATED",,"GENERAL ACUTE CARE","2014-02-10T00:00:00.000Z","IMAGERY","http://www.alaskaregional.com/","99508",
"Anchorage, Alaska, US",,"1650 Bragaw Street",,,"Anchorage","USA","Anchorage","02020","N","0004699508","61.2056304390001","-149.809758318","622210","Psychiatric And Substance Abuse Hospitals","Alaska","3044","Proprietary",,"http://dhss.alaska.gov/dph/HealthPlanning/Pages/SafetyNetDirectory.aspx","2018-08-09T00:00:00.000Z","02","AK","Alaska",,"OPEN","(907) 258-7575",,,"PSYCHIATRIC","2016-03-28T00:00:00.000Z","IMAGERY","www.northstarbehavioral.com","99508",
"Aleutians West, Alaska, US",,"Po Box 2105",,,"Adak","USA","Aleutians West","02016","N","0060699546","51.868005","-176.640263","622110","General Medical And Surgical Hospitals","Alaska","710",,,"http://dhss.alaska.gov/dph/HealthPlanning/Pages/SafetyNetDirectory.aspx","2018-08-09T00:00:00.000Z","02","AK","Alaska",,"OPEN","(907) 592-8383",,,"GENERAL ACUTE CARE","2017-06-08T00:00:00.000Z","IMAGERY/OTHER","www.eatribes.org","99546",
"Fairbanks North Star, Alaska, US",,"4076 Neely Rd",,,"Fort Wainwright","USA","Fairbanks North Star","02090","Y","0000000022","64.829700238","-147.662229159","622110","General Medical And Surgical Hospitals","Alaska","1727","Government - Federal",,"http://www.tricare.mil/mtf","2019-04-02T00:00:00.000Z","02","AK","Alaska",,"OPEN","(907) 361-5172","NOT DESIGNATED",,"MILITARY","2015-07-24T00:00:00.000Z","IMAGERY/OTHER","www.alaska.amedd.army.mil/","99703",
"Sitka, Alaska, US",,"222 Tongass Drive",,"27","Sitka","USA","Sitka","02220","N","0001799835","57.051565564","-135.354876741","622110","General Medical And Surgical Hospitals","Alaska","643","Non-Profit","27","http://dhss.alaska.gov/dph/HealthPlanning/Pages/SafetyNetDirectory.aspx","2018-08-09T00:00:00.000Z","02","AK","Alaska",,"OPEN","(907) 966-2411","LEVEL IV",,"CRITICAL ACCESS","2014-02-10T00:00:00.000Z","IMAGERY","www.searhc.org","99835",
"Valdez-Cordova, Alaska, US",,"911 Meals Avenue",,"21","Valdez","USA","Valdez-Cordova","02261","Y","0002699686","61.1365337820001","-146.346551668","622110","General Medical And Surgical Hospitals","Alaska","641","Government - Local","21","http://dhss.alaska.gov/dph/HealthPlanning/Pages/SafetyNetDirectory.aspx","2018-08-09T00:00:00.000Z","02","AK","Alaska",,"OPEN","(907) 835-2249","LEVEL IV",,"GENERAL ACUTE CARE","2014-02-10T00:00:00.000Z","IMAGERY/OTHER","www.providence.org/alaska/default.htm","99686",
"Matanuska-Susitna, Alaska, US",,"2500 S. Woodworth Loop",,"74","Palmer","USA","Matanuska-Susitna","02170","Y","0002499645","61.5628935770001","-149.258311157","622110","General Medical And Surgical Hospitals","Alaska","640","Proprietary","74","http://dhss.alaska.gov/dph/HealthPlanning/Pages/SafetyNetDirectory.aspx","2018-08-09T00:00:00.000Z","02","AK","Alaska",,"OPEN","(907) 861-6000","LEVEL IV",,"GENERAL ACUTE CARE","2014-03-12T00:00:00.000Z","IMAGERY/OTHER","http://www.matsuregional.com/index_flash.php","99645",
"Nome, Alaska, US",,"306 West 5Th Ave",,"36","Nome","USA","Nome","02180","N","0002399762","64.5019180610001","-165.405314638","622110","General Medical And Surgical Hospitals","Alaska","639","Non-Profit","36","http://dhss.alaska.gov/dph/HealthPlanning/Pages/SafetyNetDirectory.aspx","2018-08-09T00:00:00.000Z","02","AK","Alaska",,"OPEN","(907) 443-3311","LEVEL IV",,"GENERAL ACUTE CARE","2014-02-10T00:00:00.000Z","IMAGERY","www.nortonsoundhealth.org/","99762",
"Fairbanks North Star, Alaska, US",,"1650 Cowles Street",,"217","Fairbanks","USA","Fairbanks North Star","02090","Y","0001299701","64.831744708","-147.739392817","622110","General Medical And Surgical Hospitals","Alaska","638","Non-Profit","217","http://dhss.alaska.gov/dph/HealthPlanning/Pages/SafetyNetDirectory.aspx","2018-08-09T00:00:00.000Z","02","AK","Alaska",,"OPEN","(907) 452-8181","LEVEL IV",,"GENERAL ACUTE CARE","2014-02-10T00:00:00.000Z","IMAGERY","http://www.bannerhealth.com/Locations/Alaska/Fairbanks+Memorial=+Hospital/_FMH_DC_Home.htm","99701",
"Ketchikan Gateway, Alaska, US",,"3100 Tongass Avenue",,"54","Ketchikan","USA","Ketchikan Gateway","02130","Y","0000499901","55.3537186890001","-131.685788419","622110","General Medical And Surgical Hospitals","Alaska","637","Non-Profit","54","http://dhss.alaska.gov/dph/HealthPlanning/Pages/SafetyNetDirectory.aspx","2018-08-09T00:00:00.000Z","02","AK","Alaska",,"OPEN","(907) 225-5171","LEVEL IV",,"CRITICAL ACCESS","2014-02-10T00:00:00.000Z","IMAGERY/OTHER","www.peacehealth.org","99901",
"Anchorage, Alaska, US",,"4315 Diplomacy Drive",,"148","Anchorage","USA","Anchorage","02020","N","0000799508","61.182950347","-149.800292629","622110","General Medical And Surgical Hospitals","Alaska","636","Non-Profit","148","http://dhss.alaska.gov/dph/HealthPlanning/Pages/SafetyNetDirectory.aspx","2018-08-09T00:00:00.000Z","02","AK","Alaska",,"OPEN","(907) 563-2662","LEVEL II",,"GENERAL ACUTE CARE","2014-02-10T00:00:00.000Z","IMAGERY/OTHER","www.anmc.org","99508",
"Kenai Peninsula, Alaska, US",,"250 Hospital Place",,"108","Soldotna","USA","Kenai Peninsula","02122","Y","0000699669","60.493169052","-151.077826958","622110","General Medical And Surgical Hospitals","Alaska","635","Non-Profit","108","http://dhss.alaska.gov/dph/HealthPlanning/Pages/SafetyNetDirectory.aspx","2018-08-09T00:00:00.000Z","02","AK","Alaska",,"OPEN","(907) 796-8900","LEVEL II",,"GENERAL ACUTE CARE","2014-02-10T00:00:00.000Z","IMAGERY","www.cpgh.org","99669",
"Northwest Arctic, Alaska, US",,"436 5Th Ave.",,"17","Kotzebue","USA","Northwest Arctic","02188","N","0002299752","66.8960016240001","-162.586826252","622110","General Medical And Surgical Hospitals","Alaska","642","Non-Profit","17","http://dhss.alaska.gov/dph/HealthPlanning/Pages/SafetyNetDirectory.aspx","2018-08-09T00:00:00.000Z","02","AK","Alaska",,"OPEN","(907) 442-3321","LEVEL IV",,"CRITICAL ACCESS","2014-02-10T00:00:00.000Z","IMAGERY","www.maniilaq.org","99752",
"Anchorage, Alaska, US",,"4800 Cordova Street",,,"Anchorage","USA","Anchorage","02020","N","0004799503","61.176410993","-149.880115614","622310","Specialty (Except Psychiatric And Substance Abuse) Hospitals","Alaska","3753","Proprietary",,"http://dhss.alaska.gov/dph/HealthPlanning/Pages/SafetyNetDirectory.aspx","2018-08-09T00:00:00.000Z","02","AK","Alaska",,"OPEN","(907) 561-3333",,,"LONG TERM CARE","2016-03-29T00:00:00.000Z","IMAGERY","www.st-eliashospital.com","99503",
"Kodiak Island, Alaska, US",,"1915 Rezanof Drive",,"25","Kodiak","USA","Kodiak Island","02150","Y","0001699615","57.8008999830001","-152.375607731","622110","General Medical And Surgical Hospitals","Alaska","7244","Non-Profit","25","http://dhss.alaska.gov/dph/HealthPlanning/Pages/SafetyNetDirectory.aspx","2018-08-09T00:00:00.000Z","02","AK","Alaska",,"OPEN","(907) 486-3281","LEVEL IV",,"GENERAL ACUTE CARE","2014-02-10T00:00:00.000Z","IMAGERY/OTHER","www.providence.org/alaska/default.htm","99615",
"Juneau, Alaska, US",,"3260 Hospital Drive",,,"Juneau","USA","Juneau","02110","Y","0001799801","58.329079511","-134.465152632","622110","General Medical And Surgical Hospitals","Alaska","1718","Government - Federal",,"http://dhss.alaska.gov/dph/HealthPlanning/Pages/SafetyNetDirectory.aspx","2018-08-09T00:00:00.000Z","02","AK","Alaska",,"OPEN","(907) 796-8900","LEVEL IV",,"CRITICAL ACCESS","2015-04-23T00:00:00.000Z","IMAGERY/OTHER","http://www.bartletthospital.org","99801",
"Anchorage, Alaska, US",,"2530 Debarr Road",,"200","Anchorage","USA","Anchorage","02020","N","0000299508","61.207907203","-149.83348441","622210","Psychiatric And Substance Abuse Hospitals","Alaska","6067","Proprietary","200","http://dhss.alaska.gov/dph/HealthPlanning/Pages/SafetyNetDirectory.aspx","2018-08-09T00:00:00.000Z","02","AK","Alaska",,"OPEN","(907) 258-7575",,,"PSYCHIATRIC","2014-02-10T00:00:00.000Z","IMAGERY/OTHER","www.northstarbehavioral.com","99508",
"Anchorage, Alaska, US",,"3700 Piper Street",,"80","Anchorage","USA","Anchorage","02020","N","0000199508","61.1850968030001","-149.829801554","622210","Psychiatric And Substance Abuse Hospitals","Alaska","6311","Government - State","80","http://dhss.alaska.gov/dph/HealthPlanning/Pages/SafetyNetDirectory.aspx","2018-08-09T00:00:00.000Z","02","AK","Alaska",,"OPEN","(907) 269-7100",,,"PSYCHIATRIC","2014-02-10T00:00:00.000Z","IMAGERY/OTHER","http://dhss.alaska.gov/dbh/Pages/api/default.aspx","99508",
"Valdez-Cordova, Alaska, US",,"602 Chase Ave.",,"23","Cordova","USA","Valdez-Cordova","02261","Y","0002199574","60.541254774","-145.750649147","622110","General Medical And Surgical Hospitals","Alaska","6565","Government - Local","23","http://dhss.alaska.gov/dph/HealthPlanning/Pages/SafetyNetDirectory.aspx","2018-08-09T00:00:00.000Z","02","AK","Alaska",,"OPEN","(907) 424-8000","NOT DESIGNATED",,"CRITICAL ACCESS","2013-10-28T00:00:00.000Z","IMAGERY","http://cdvcmc.com/","99574",
"Valdez-Cordova, Alaska, US",,"187 Glenn Hwy, Po Box 5",,,"Glennallen","USA","Valdez-Cordova","02261","N","0060399588","62.108932","-145.540928","622110","General Medical And Surgical Hospitals","Alaska","3796",,,"http://dhss.alaska.gov/dph/HealthPlanning/Pages/SafetyNetDirectory.aspx","2018-08-09T00:00:00.000Z","02","AK","Alaska",,"OPEN","(907) 822-3203",,,"GENERAL ACUTE CARE","2019-04-16T00:00:00.000Z","IMAGERY/OTHER","http://www.crossroadmc.org/","99588",
"North Slope, Alaska, US",,"1296 Agvik Street",,,"Barrow","USA","North Slope","02185","N","0060599723","71.29284714","-156.778767705","622110","General Medical And Surgical Hospitals","Alaska","1563",,,"http://dhss.alaska.gov/dph/HealthPlanning/Pages/SafetyNetDirectory.aspx","2018-08-09T00:00:00.000Z","02","AK","Alaska",,"OPEN","(907) 852-9248","LEVEL IV",,"CRITICAL ACCESS","2014-02-13T00:00:00.000Z","IMAGERY/OTHER","www.arcticslope.org","99723",
"Dillingham, Alaska, US",,"6000 Kanakanak Road",,"14","Dillingham","USA","Dillingham","02070","Y","0001199576","59.0004747610001","-158.536312298","622110","General Medical And Surgical Hospitals","Alaska","5331","Non-Profit","14","http://dhss.alaska.gov/dph/HealthPlanning/Pages/SafetyNetDirectory.aspx","2018-08-09T00:00:00.000Z","02","AK","Alaska",,"OPEN","(907) 842-5201","LEVEL IV",,"CRITICAL ACCESS","2014-03-13T00:00:00.000Z","IMAGERY","www.bbahc.org","99576",
"Petersburg, Alaska, US",,"103 Fram St.",,"27","Petersburg","USA","Petersburg","02280","N","0002599833","56.8128840750001","-132.955205062","622110","General Medical And Surgical Hospitals","Alaska","7246","Government - Local","27","http://dhss.alaska.gov/dph/HealthPlanning/Pages/SafetyNetDirectory.aspx","2018-08-09T00:00:00.000Z","02","AK","Alaska",,"OPEN","(907) 772-4291","LEVEL IV",,"GENERAL ACUTE CARE","2013-10-28T00:00:00.000Z","IMAGERY","http://www.pmc-health.com/","99833",
"Anchorage, Alaska, US",,"1201 N Muldoon Rd",,,"Anchorage","USA","Anchorage","02020","Y","0001099504","61.2327880230001","-149.744530504","622110","General Medical And Surgical Hospitals","Alaska","7443","Government - Federal",,"https://www.va.gov/directory/guide/allstate.asp","2018-09-26T00:00:00.000Z","02","AK","Alaska",,"OPEN","(907) 257-4700",,,"MILITARY","2015-05-13T00:00:00.000Z","IMAGERY/OTHER","http://www.alaska.va.gov/","99504",
"Sitka, Alaska, US",,"209 Moller Avenue",,"27","Sitka","USA","Sitka","02220","N","0001899835","57.0597613310001","-135.346935033","622110","General Medical And Surgical Hospitals","Alaska","7245","Government - Local","27","http://dhss.alaska.gov/dph/HealthPlanning/Pages/SafetyNetDirectory.aspx","2018-08-09T00:00:00.000Z","02","AK","Alaska",,"OPEN","(907) 747-3241","LEVEL IV",,"GENERAL ACUTE CARE","2013-10-28T00:00:00.000Z","IMAGERY","www.sitkahospital.org","99835",
"Fairbanks North Star, Alaska, US",,"2630 Central Avenue, Suite 1M07",,,"Eielson Afb","USA","Fairbanks North Star","02090","N","0060099702","64.678406705","-147.092624534","622110","General Medical And Surgical Hospitals","Alaska","4246","Government - Federal",,"http://www.tricare.mil/mtf","2019-04-02T00:00:00.000Z","02","AK","Alaska",,"OPEN","(907) 377-1847",,,"MILITARY","2014-02-13T00:00:00.000Z","IMAGERY/OTHER",,"99702","2397"
"Bethel, Alaska, US",,"700 Chief Eddie Hoffman Highway",,"37","Bethel","USA","Bethel","02050","N","0002099559","60.7883423500001","-161.784612775","622110","General Medical And Surgical Hospitals","Alaska","3754","Non-Profit","37","http://dhss.alaska.gov/dph/HealthPlanning/Pages/SafetyNetDirectory.aspx","2018-08-09T00:00:00.000Z","02","AK","Alaska",,"OPEN","(907) 543-6300","LEVEL IV",,"CRITICAL ACCESS","2014-02-10T00:00:00.000Z","IMAGERY","www.ykhc.org","99559",
"Jefferson, Alabama, US",,"2010 Brookwood Medical Center Drive",,"607","Birmingham","USA","Jefferson","01073","Y","0000535259","33.463730942","-86.776253389","622110","General Medical And Surgical Hospitals","Alabama","1274","Proprietary","607","http://dph1.adph.state.al.us/FacilitiesDirectory","2018-08-09T00:00:00.000Z","01","AL","Alabama","H3721","OPEN","(205) 877-1000","LEVEL III",,"GENERAL ACUTE CARE","2014-03-13T00:00:00.000Z","IMAGERY/OTHER","http://www.bwmc.com","35259",
"Shelby, Alabama, US",,"50 Medical Park East Drive",,"45","Birmingham","USA","Shelby","01117","N","0009235261","33.4149192100001","-86.6860220629999","622310","Specialty (Except Psychiatric And Substance Abuse) Hospitals","Alabama","1276","Proprietary","45","http://dph1.adph.state.al.us/FacilitiesDirectory","2018-08-09T00:00:00.000Z","01","AL","Alabama","H3723","OPEN","(205) 838-5100",,,"LONG TERM CARE","2014-02-10T00:00:00.000Z","IMAGERY","http://www.nolandhealth.com","35261",
"Jefferson, Alabama, US",,"800 Montclair Road",,"38","Birmingham","USA","Jefferson","01073","Y","0008535213","33.4641039370001","-86.777332621","622110","General Medical And Surgical Hospitals","Alabama","1277","Proprietary","38","http://dph1.adph.state.al.us/FacilitiesDirectory","2018-08-09T00:00:00.000Z","01","AL","Alabama","H3722","OPEN","(205) 599-4595",,,"GENERAL ACUTE CARE","2014-03-12T00:00:00.000Z","IMAGERY/OTHER","http://www.selectspecialtyhospitals.com/company/locations/birmingh am.aspx","35213",
"Jefferson, Alabama, US",,"1600 Seventh Avenue, South",,"332","Birmingham","USA","Jefferson","01073","Y","0000735233","33.504048154","-86.8051591399999","622110","Children's Hospitals, General","Alabama","1275","Non-Profit","332","http://dph1.adph.state.al.us/FacilitiesDirectory","2018-08-09T00:00:00.000Z","01","AL","Alabama","H3704","OPEN","(205) 638-9100","LEVEL I",,"CHILDREN","2014-03-12T00:00:00.000Z","IMAGERY/OTHER","http://www.childrensal.org","35233",
"Jefferson, Alabama, US",,"700 S 19Th St S",,,"Birmingham","USA","Jefferson","01073","N","0001335233","33.5044482610001","-86.8013461209999","622110","General Medical And Surgical Hospitals","Alabama","1273","Government - Federal",,"https://www.va.gov/directory/guide/allstate.asp","2018-09-26T00:00:00.000Z","01","AL","Alabama","H3724","OPEN","(205) 933-8101",,,"MILITARY","2015-05-13T00:00:00.000Z","IMAGERY/OTHER","http://www.birmingham.va.gov/","35233",
"Houston, Alabama, US",,"4370 West Main Street",,"235","Dothan","USA","Houston","01069","Y","0001636302","31.237429987","-85.45704246","622110","General Medical And Surgical Hospitals","Alabama","1868","Proprietary","235","http://dph1.adph.state.al.us/FacilitiesDirectory","2018-08-09T00:00:00.000Z","01","AL","Alabama","H3501","OPEN","(334) 793-5000","LEVEL III",,"GENERAL ACUTE CARE","2014-02-10T00:00:00.000Z","IMAGERY/OTHER","http://www.flowershospital.com","36302",
"DeKalb, Alabama, US",,"200 Medical Center Drive",,"134","Fort Payne","USA","DeKalb","01049","Y","0004135968","34.4412798390001","-85.756218367","622110","General Medical And Surgical Hospitals","Alabama","1869","Proprietary","134","http://dph1.adph.state.al.us/FacilitiesDirectory","2018-08-09T00:00:00.000Z","01","AL","Alabama","H2501","OPEN","(256) 845-3150","LEVEL III",,"GENERAL ACUTE CARE","2014-03-12T00:00:00.000Z","IMAGERY/OTHER","http://www.dekalbregional.com","35968","1608"
"Etowah, Alabama, US",,"801 Goodyear Avenue",,"44","Gadsden","USA","Etowah","01055","Y","0005935903","34.0067412230001","-85.968488438","622310","Rehabilitation Hospitals (Except Alcoholism, Drug Addiction)","Alabama","1867","Proprietary","44","http://dph1.adph.state.al.us/FacilitiesDirectory","2018-08-09T00:00:00.000Z","01","AL","Alabama","H2804","OPEN","(256) 439-5000",,,"REHABILITATION","2013-09-06T00:00:00.000Z","IMAGERY/OTHER","http://www.healthsouthgadsden.com/","35903",
"Morgan, Alabama, US",,"1874 Beltline Road, S.W.",,"108","Decatur","USA","Morgan","01103","N","0001035601","34.5768967860001","-87.0158086599999","622110","General Medical And Surgical Hospitals","Alabama","1866","Proprietary","108","http://dph1.adph.state.al.us/FacilitiesDirectory","2018-08-09T00:00:00.000Z","01","AL","Alabama","01-0054","OPEN","(256) 350-2211",,,"GENERAL ACUTE CARE","2013-10-02T00:00:00.000Z","IMAGERY/OTHER","http://www.decaturgeneral.org/","35601",
"Montgomery, Alabama, US",,"215 Perry Hill Rd",,,"Montgomery","USA","Montgomery","01101","N","0001436109","32.3769911360001","-86.2436852179999","622110","General Medical And Surgical Hospitals","Alabama","1865","Government - Federal",,"https://www.va.gov/directory/guide/allstate.asp","2018-09-26T00:00:00.000Z","01","AL","Alabama","H5110","OPEN","(334) 272-4670",,,"MILITARY","2015-05-13T00:00:00.000Z","IMAGERY/OTHER","http://www.centralalabama.va.gov/","36109",
"Marshall, Alabama, US",,"8000 Alabama Highway 69",,"90","Guntersville","USA","Marshall","01095","Y","0007335976","34.3649133480001","-86.421351527","622110","General Medical And Surgical Hospitals","Alabama","1864","Government - District/Authority","90","http://dph1.adph.state.al.us/FacilitiesDirectory","2018-08-09T00:00:00.000Z","01","AL","Alabama","H4804","OPEN","(256) 894-6712","LEVEL III",,"GENERAL ACUTE CARE","2013-10-02T00:00:00.000Z","IMAGERY/OTHER","http://www.mmcenters.com","35976",
"Jefferson, Alabama, US",,"995 Ninth Avenue Southwest",,"310","Bessemer","USA","Jefferson","01073","Y","0005435021","33.3734044770001","-86.993289749","622110","General Medical And Surgical Hospitals","Alabama","1863","Government - District/Authority","310","http://dph1.adph.state.al.us/FacilitiesDirectory","2018-08-09T00:00:00.000Z","01","AL","Alabama","01-0114","OPEN","(205) 481-7118","LEVEL III",,"GENERAL ACUTE CARE","2013-09-05T00:00:00.000Z","IMAGERY/OTHER","http://www.medicalwesthospital.org","35021",
"Limestone, Alabama, US",,"700 West Market Street",,"71","Athens","USA","Limestone","01083","N","0001535611","34.8041639300001","-86.978407208","622110","General Medical And Surgical Hospitals","Alabama","1272","Proprietary","71","http://dph1.adph.state.al.us/FacilitiesDirectory","2018-08-09T00:00:00.000Z","01","AL","Alabama","H4201","OPEN","(256) 233-9292","LEVEL III",,"GENERAL ACUTE CARE","2013-10-02T00:00:00.000Z","IMAGERY/OTHER","http://www.athenslimestonehospital.com","35611",
"Tallapoosa, Alabama, US",,"3316 Highway 280",,"81","Alexander City","USA","Tallapoosa","01123","Y","0010435010","32.9302132720001","-85.969566148","622110","General Medical And Surgical Hospitals","Alabama","1870","Non-Profit","81","http://dph1.adph.state.al.us/FacilitiesDirectory","2018-08-09T00:00:00.000Z","01","AL","Alabama","H6203","OPEN","(256) 329-7146","LEVEL III",,"GENERAL ACUTE CARE","2014-02-10T00:00:00.000Z","IMAGERY/OTHER","http://www.russellmedcenter.com/index.aspx","35010",
"Barbour, Alabama, US",,"820 West Washington Street",,"74","Eufaula","USA","Barbour","01005","Y","0005136027","31.8886450800001","-85.156405419","622110","General Medical And Surgical Hospitals","Alabama","916","Government - District/Authority","74","http://dph1.adph.state.al.us/FacilitiesDirectory","2018-08-09T00:00:00.000Z","01","AL","Alabama","H0301","OPEN","(334) 688-7271","LEVEL III",,"GENERAL ACUTE CARE","2013-09-10T00:00:00.000Z","IMAGERY/OTHER","http://www.medctrbarbour.org","36027",
"Calhoun, Alabama, US",,"301 East 18Th Street",,"125","Anniston","USA","Calhoun","01015","N","0011336201","33.668235903","-85.8237127259999","622110","General Medical And Surgical Hospitals","Alabama","2295","Proprietary","125","http://dph1.adph.state.al.us/FacilitiesDirectory","2018-08-09T00:00:00.000Z","01","AL","Alabama","H0803","OPEN","(256) 235-8900","LEVEL III",,"GENERAL ACUTE CARE","2013-09-10T00:00:00.000Z","IMAGERY/OTHER","http://www.stringfellowhealth.com","36201",
"Baldwin, Alabama, US",,"1613 North Mckenzie Street",,"112","Foley","USA","Baldwin","01003","Y","0008636535","30.425835684","-87.684685647","622110","General Medical And Surgical Hospitals","Alabama","7516","Proprietary","112","http://dph1.adph.state.al.us/FacilitiesDirectory","2018-08-09T00:00:00.000Z","01","AL","Alabama","H0202","OPEN","(251) 949-3400","LEVEL III",,"GENERAL ACUTE CARE","2014-02-10T00:00:00.000Z","IMAGERY/OTHER","http://www.southbaldwinrmc.com","36535",
"Baldwin, Alabama, US",,"7400 Roper Lane",,"66","Daphne","USA","Baldwin","01003","N","0004336526","30.635289146","-87.895139097","622210","Psychiatric And Substance Abuse Hospitals","Alabama","7515","Proprietary","66","http://dph1.adph.state.al.us/FacilitiesDirectory","2018-08-09T00:00:00.000Z","01","AL","Alabama","H4912","OPEN","(251) 450-5901",,,"PSYCHIATRIC","2014-02-10T00:00:00.000Z","IMAGERY","http://www.altapointe.org/eastpointe.php","36526",
"Cherokee, Alabama, US",,"400 Northwood Drive",,"60","Centre","USA","Cherokee","01019","Y","0002735960","34.161458302","-85.6510887759999","622110","General Medical And Surgical Hospitals","Alabama","7514","Proprietary","60","http://dph1.adph.state.al.us/FacilitiesDirectory","2018-08-09T00:00:00.000Z","01","AL","Alabama","H1001","OPEN","(256) 927-5531",,,"GENERAL ACUTE CARE","2014-02-10T00:00:00.000Z","IMAGERY","http://www.cherokeemedicalcenter.com","35960",
"Tallapoosa, Alabama, US",,"201 Mariarden Road",,"46","Dadeville","USA","Tallapoosa","01123","Y","0006936853","32.8185985690001","-85.7411399059999","622110","General Medical And Surgical Hospitals","Alabama","7513","Proprietary","46","http://dph1.adph.state.al.us/FacilitiesDirectory","2018-08-09T00:00:00.000Z","01","AL","Alabama","H6202","OPEN","(256) 827-0800",,,"GENERAL ACUTE CARE","2014-02-10T00:00:00.000Z","IMAGERY","http://www.lakemartincommunityhospital.com","36853",
"Baldwin, Alabama, US",,"750 Morphy Avenue",,"150","Fairhope","USA","Baldwin","01003","N","0011536532","30.5188790280001","-87.8894474369999","622110","General Medical And Surgical Hospitals","Alabama","7512","Non-Profit","150","http://dph1.adph.state.al.us/FacilitiesDirectory","2018-08-09T00:00:00.000Z","01","AL","Alabama","H0203","OPEN","(251) 279-1501","LEVEL III",,"GENERAL ACUTE CARE","2013-09-10T00:00:00.000Z","IMAGERY/OTHER","http://www.thomashospital.com","36532",
"Crenshaw, Alabama, US",,"150 Hospital Drive",,"28","Luverne","USA","Crenshaw","01041","Y","0001836049","31.694588547","-86.26319151","622210","Psychiatric And Substance Abuse Hospitals","Alabama","7511","Proprietary","28","http://dph1.adph.state.al.us/FacilitiesDirectory","2018-08-09T00:00:00.000Z","01","AL","Alabama","H2102","OPEN","(334) 213-0504",,,"PSYCHIATRIC","2014-02-10T00:00:00.000Z","IMAGERY/OTHER","http://beaconchildrenshospital.com/","36049",
"Jefferson, Alabama, US",,"3690 Grandview Parkway",,"372","Birmingham","USA","Jefferson","01073","Y","0013535243","33.43293355","-86.717441464","622110","General Medical And Surgical Hospitals","Alabama","1871","Proprietary","372","http://dph1.adph.state.al.us/FacilitiesDirectory","2018-08-09T00:00:00.000Z","01","AL","Alabama",,"OPEN","(205) 592-1000","LEVEL III",,"GENERAL ACUTE CARE","2016-03-08T00:00:00.000Z","IMAGERY/OTHER","http://www.grandviewhealth.com/grandview/default.aspx","35243",
"Etowah, Alabama, US",,"1007 Goodyear Avenue",,"346","Gadsden","USA","Etowah","01055","Y","0004935903","34.0077362820001","-85.965982141","622110","General Medical And Surgical Hospitals","Alabama","921","Proprietary","346","http://dph1.adph.state.al.us/FacilitiesDirectory","2018-08-09T00:00:00.000Z","01","AL","Alabama","H2801","OPEN","(256) 494-4000","LEVEL III",,"GENERAL ACUTE CARE","2014-02-10T00:00:00.000Z","IMAGERY/OTHER","http://www.gadsdenregional.com","35903",
"Marion, Alabama, US",,"1256 Military Street South",,"49","Hamilton","USA","Marion","01093","Y","0004735570","34.1259771800001","-87.990768777","622110","General Medical And Surgical Hospitals","Alabama","919","Non-Profit","49","http://dph1.adph.state.al.us/FacilitiesDirectory","2018-08-09T00:00:00.000Z","01","AL","Alabama","H4703","OPEN","(205) 921-6202",,,"GENERAL ACUTE CARE","2014-02-10T00:00:00.000Z","IMAGERY/OTHER","http://www.nmhs.net/hamilton/","35570",
"Escambia, Alabama, US",,"401 Medical Park Dr.",,"51","Atmore","USA","Escambia","01053","Y","0000136502","31.0170238650001","-87.478798513","622110","General Medical And Surgical Hospitals","Alabama","918","Non-Profit","51","http://dph1.adph.state.al.us/FacilitiesDirectory","2018-08-09T00:00:00.000Z","01","AL","Alabama","H2704","OPEN","(251) 368-2500","LEVEL III",,"GENERAL ACUTE CARE","2014-02-10T00:00:00.000Z","IMAGERY/OTHER","http://www.ebaptisthealthcare.org/AtmoreCommunityHospital/","36502",
"Clarke, Alabama, US",,"295 Jackson Highway S",,"50","Grove Hill","USA","Clarke","01025","Y","0005536451","31.694302296","-87.776024627","622110","General Medical And Surgical Hospitals","Alabama","917","Government - District/Authority","50","http://dph1.adph.state.al.us/FacilitiesDirectory","2018-08-09T00:00:00.000Z","01","AL","Alabama","H1301","OPEN","(251) 275-3191","LEVEL III",,"GENERAL ACUTE CARE","2014-02-10T00:00:00.000Z","IMAGERY/OTHER","http://www.grovehillmemorial.org","36451",
"Jefferson, Alabama, US",,"619 South 19Th Street",,"1157","Birmingham","USA","Jefferson","01073","Y","0011935233","33.505603292","-86.8020353969999","622110","General Medical And Surgical Hospitals","Alabama","1278","Government - State","1157","http://dph1.adph.state.al.us/FacilitiesDirectory","2018-08-09T00:00:00.000Z","01","AL","Alabama","H3717","OPEN","(205) 934-4444","LEVEL I",,"GENERAL ACUTE CARE","2014-03-12T00:00:00.000Z","IMAGERY/OTHER","http://www.health.uab.edu","35233",
"Houston, Alabama, US",,"1108 Ross Clark Circle",,"420","Dothan","USA","Houston","01069","Y","0011036301","31.2163036480001","-85.3636311239999","622110","General Medical And Surgical Hospitals","Alabama","915","Government - District/Authority","420","http://dph1.adph.state.al.us/FacilitiesDirectory","2018-08-09T00:00:00.000Z","01","AL","Alabama","H3502","OPEN","(334) 793-8701","LEVEL II",,"GENERAL ACUTE CARE","2014-02-10T00:00:00.000Z","IMAGERY/OTHER","http://www.samc.org","36301",
"Shelby, Alabama, US",,"1000 First Street, North",,"252","Alabaster","USA","Shelby","01117","Y","0010735007","33.252364867","-86.8130430149999","622110","General Medical And Surgical Hospitals","Alabama","914","Proprietary","252","http://dph1.adph.state.al.us/FacilitiesDirectory","2018-08-09T00:00:00.000Z","01","AL","Alabama","H6101","OPEN","(205) 715-5309","LEVEL III",,"GENERAL ACUTE CARE","2014-03-12T00:00:00.000Z","IMAGERY/OTHER","http://www.bhsala.com/shelby/Home.aspx","35007",
"Morgan, Alabama, US",,"1201 Seventh Street, Southeast",,"230","Decatur","USA","Morgan","01103","Y","0003935601","34.5903440910001","-86.971481526","622110","General Medical And Surgical Hospitals","Alabama","920","Proprietary","230","http://dph1.adph.state.al.us/FacilitiesDirectory","2018-08-09T00:00:00.000Z","01","AL","Alabama","H5206","OPEN","(256) 341-2000","LEVEL III",,"GENERAL ACUTE CARE","2014-03-12T00:00:00.000Z","IMAGERY/OTHER","http://www.decaturgeneral.org/","35601",
"Escambia, Alabama, US",,"1301 Belleville Avenue",,"91","Brewton","USA","Escambia","01053","Y","0003836427","31.127033909","-87.0734993039999","622110","General Medical And Surgical Hospitals","Alabama","1279","Government - District/Authority","91","http://dph1.adph.state.al.us/FacilitiesDirectory","2018-08-09T00:00:00.000Z","01","AL","Alabama","H2703","OPEN","(251) 867-8061","LEVEL III",,"GENERAL ACUTE CARE","2014-03-12T00:00:00.000Z","IMAGERY/OTHER","http://www.dwmmh.org","36427",
"Fayette, Alabama, US",,"1653 Temple Avenue, North",,"61","Fayette","USA","Fayette","01057","Y","0004835555","33.70817814","-87.8246889819999","622110","General Medical And Surgical Hospitals","Alabama","1286","Government - District/Authority","61","http://dph1.adph.state.al.us/FacilitiesDirectory","2018-08-09T00:00:00.000Z","01","AL","Alabama","H2901","OPEN","(205) 932-5966",,,"GENERAL ACUTE CARE","2014-03-12T00:00:00.000Z","IMAGERY/OTHER","http://www.dchsystem.com/body.cfm?id=36928","35555",
"Washington, Alabama, US",,"14600 St. Stephens Avenue",,"25","Chatom","USA","Washington","01129","Y","0012236518","31.459538148","-88.235079893","622110","General Medical And Surgical Hospitals","Alabama","1281","Government - Local","25","http://dph1.adph.state.al.us/FacilitiesDirectory","2018-08-09T00:00:00.000Z","01","AL","Alabama","H6501","OPEN","(251) 847-2223",,,"CRITICAL ACCESS","2013-09-10T00:00:00.000Z","IMAGERY/OTHER","http://www.wchnh.org","36518",
"Tuscaloosa, Alabama, US",,"3701 Loop Rd E",,,"Tuscaloosa","USA","Tuscaloosa","01125","N","0004535401","33.1899356690001","-87.488317847","622110","General Medical And Surgical Hospitals","Alabama","1313","Government - Federal",,"https://www.va.gov/directory/guide/allstate.asp","2018-09-26T00:00:00.000Z","01","AL","Alabama","H6309","OPEN","(205) 554-2000",,,"MILITARY","2015-05-20T00:00:00.000Z","IMAGERY/OTHER","http://www.tuscaloosa.va.gov/","35401",
"Macon, Alabama, US",,"2400 Hospital Rd",,,"Tuskegee","USA","Macon","01087","Y","0001636083","32.445218316","-85.712148611","622110","General Medical And Surgical Hospitals","Alabama","1314","Government - Federal",,"https://www.va.gov/directory/guide/allstate.asp","2018-09-26T00:00:00.000Z","01","AL","Alabama","H4401","OPEN","(334) 727-0550",,,"MILITARY","2015-05-13T00:00:00.000Z","IMAGERY/OTHER","http://www.centralalabama.va.gov/","36083",
"Bullock, Alabama, US",,"102 West Conecuh Avenue",,"61","Union Springs","USA","Bullock","01011","N","0008236089","32.146635109","-85.717009326","622110","General Medical And Surgical Hospitals","Alabama","1315","Proprietary","61","http://dph1.adph.state.al.us/FacilitiesDirectory","2018-08-09T00:00:00.000Z","01","AL","Alabama","H0601","OPEN","(334) 738-2140",,,"GENERAL ACUTE CARE","2014-02-10T00:00:00.000Z","IMAGERY",,"36089",
"Randolph, Alabama, US",,"209 North Main Street",,"34","Wedowee","USA","Randolph","01111","N","0012136278","33.3114042180001","-85.485452466","622110","General Medical And Surgical Hospitals","Alabama","1316","Non-Profit","34","http://dph1.adph.state.al.us/FacilitiesDirectory","2018-08-09T00:00:00.000Z","01","AL","Alabama","01-0032","OPEN","(256) 357-2111",,,"GENERAL ACUTE CARE","2014-02-10T00:00:00.000Z","IMAGERY","http://www.wedoweehospital.org/","36278",
"Elmore, Alabama, US",,"500 Hospital Drive",,"69","Wetumpka","USA","Elmore","01051","Y","0004536092","32.552266972","-86.1863964459999","622110","General Medical And Surgical Hospitals","Alabama","1317","Proprietary","69","http://dph1.adph.state.al.us/FacilitiesDirectory","2018-08-09T00:00:00.000Z","01","AL","Alabama","H2601","OPEN","(334) 567-4311",,,"GENERAL ACUTE CARE","2013-09-06T00:00:00.000Z","IMAGERY/OTHER","http://www.elmorehospital.com/","36092",
"Morgan, Alabama, US",,"2205 Beltline Road, S.W.",,"64","Decatur","USA","Morgan","01103","N","0001135601","34.58368232","-87.0254165919999","622110","General Medical And Surgical Hospitals","Alabama","2299","Proprietary","64","http://dph1.adph.state.al.us/FacilitiesDirectory","2018-08-09T00:00:00.000Z","01","AL","Alabama","H5206","OPEN","(256) 341-2000",,,"GENERAL ACUTE CARE","2013-09-03T00:00:00.000Z","IMAGERY","http://www.decaturgeneral.org/","35601",
"Montgomery, Alabama, US",,"400 Taylor Road",,"150","Montgomery","USA","Montgomery","01101","Y","0000236124","32.376399501","-86.174930022","622110","General Medical And Surgical Hospitals","Alabama","2307","Government - District/Authority","150","http://dph1.adph.state.al.us/FacilitiesDirectory","2018-08-09T00:00:00.000Z","01","AL","Alabama","01-0149","OPEN","(334) 273-4410",,,"GENERAL ACUTE CARE","2013-09-03T00:00:00.000Z","IMAGERY/OTHER","http://www.baptistfirst.org","36124","1267"
"Montgomery, Alabama, US",,"4385 Narrow Lane Road",,"60","Montgomery","USA","Montgomery","01101","N","0091036116","32.3234632680001","-86.281344834","622210","Psychiatric And Substance Abuse Hospitals","Alabama","2308","Government - District/Authority","60","http://dph1.adph.state.al.us/FacilitiesDirectory","2018-08-09T00:00:00.000Z","01","AL","Alabama","H5111","OPEN","(334) 286-3116",,,"PSYCHIATRIC","2015-02-03T00:00:00.000Z","IMAGERY/OTHER",,"36116",
"Blount, Alabama, US",,"150 Gilbreath Drive",,"40","Oneonta","USA","Blount","01009","Y","0011235121","33.9296507290001","-86.494118629","622110","General Medical And Surgical Hospitals","Alabama","2311","Non-Profit","40","http://dph1.adph.state.al.us/FacilitiesDirectory","2018-08-09T00:00:00.000Z","01","AL","Alabama","H0501","OPEN","(205) 274-3000",,,"CRITICAL ACCESS","2014-02-10T00:00:00.000Z","IMAGERY","http://www.stvhs.com","35121",
"Autauga, Alabama, US",,"124 South Memorial Drive",,"85","Prattville","USA","Autauga","01001","N","0007636067","32.4638917230001","-86.45225293","622110","General Medical And Surgical Hospitals","Alabama","2313","Government - District/Authority","85","http://dph1.adph.state.al.us/FacilitiesDirectory","2018-08-09T00:00:00.000Z","01","AL","Alabama","H0101","OPEN","(334) 361-4267",,,"GENERAL ACUTE CARE","2014-02-10T00:00:00.000Z","IMAGERY/OTHER","http://www.baptistfirst.org/facilities/prattville-baptisthospital/ default.aspx","36067",
"Tuscaloosa, Alabama, US",,"201 University Boulevard",,,"Tuscaloosa","USA","Tuscaloosa","01125","N","0091235402","33.2190660000001","-87.533981","622210","Psychiatric And Substance Abuse Hospitals","Alabama","1312","Government - State",,"http://dph1.adph.state.al.us/FacilitiesDirectory","2018-08-09T00:00:00.000Z","01","AL","Alabama","H6307","OPEN","(205) 759-0900",,,"PSYCHIATRIC","2018-02-20T00:00:00.000Z","IMAGERY/OTHER",,"35402",
"Dallas, Alabama, US",,"1015 Medical Center Parkway",,"175","Selma","USA","Dallas","01047","Y","0009936701","32.4294652130001","-87.055973046","622110","General Medical And Surgical Hospitals","Alabama","2314","Proprietary","175","http://dph1.adph.state.al.us/FacilitiesDirectory","2018-08-09T00:00:00.000Z","01","AL","Alabama","H2403","OPEN","(334) 418-4190",,,"GENERAL ACUTE CARE","2014-02-10T00:00:00.000Z","IMAGERY/OTHER","http://www.vaughanregional.com","36701",
"Montgomery, Alabama, US",,"8105 Veterans Way",,,"Montgomery","USA","Montgomery","01101","N","0176936109","32.3577100000001","-86.129219","622110","General Medical And Surgical Hospitals","Alabama","4023","Government - Federal",,"http://dph1.adph.state.al.us/FacilitiesDirectory","2018-08-09T00:00:00.000Z","01","AL","Alabama",,"OPEN","(800) 214-8387",,,"MILITARY","2019-05-09T00:00:00.000Z","IMAGERY","https://www.centralalabama.va.gov/","36109",
"Chilton, Alabama, US",,"2030 Lay Dam Road",,"26","Clanton","USA","Chilton","01021","Y","0172435046","32.8802860000001","-86.62279","622110","General Medical And Surgical Hospitals","Alabama","4026","Proprietary","26","http://dph1.adph.state.al.us/FacilitiesDirectory","2018-08-09T00:00:00.000Z","01","AL","Alabama","H1102","OPEN","(205) 258-4400",,,"GENERAL ACUTE CARE","2019-05-09T00:00:00.000Z","IMAGERY","http://www.stvhs.com/","35046",
"Montgomery, Alabama, US",,"1725 Pine Street, 5Th Floor, North Wing",,"65","Montgomery","USA","Montgomery","01101","Y","0091436106","32.3669693300001","-86.285790053","622310","Specialty (Except Psychiatric And Substance Abuse) Hospitals","Alabama","4090","Proprietary","65","http://dph1.adph.state.al.us/FacilitiesDirectory","2018-08-09T00:00:00.000Z","01","AL","Alabama","H5109","OPEN","(334) 240-0532","LEVEL III",,"LONG TERM CARE","2015-02-03T00:00:00.000Z","IMAGERY/OTHER",,"36106",
"Limestone, Alabama, US",,"700 West Market St, 2Nd Floor",,"31","Athens","USA","Limestone","01083","Y","0013735611","34.8042455780001","-86.978872603","622310","Specialty (Except Psychiatric And Substance Abuse) Hospitals","Alabama","4179","Proprietary","31","http://dph1.adph.state.al.us/FacilitiesDirectory","2018-08-09T00:00:00.000Z","01","AL","Alabama","H4203","OPEN","(256) 262-6767",,,"LONG TERM CARE","2016-03-08T00:00:00.000Z","IMAGERY/OTHER",,"35611",
"Tuscaloosa, Alabama, US",,"809 University Blvd East, 4Th Floor",,"32","Tuscaloosa","USA","Tuscaloosa","01125","Y","0090535401","33.205174448","-87.5263643769999","622310","Specialty (Except Psychiatric And Substance Abuse) Hospitals","Alabama","4196","Proprietary",,"http://dph1.adph.state.al.us/FacilitiesDirectory","2018-08-09T00:00:00.000Z","01","AL","Alabama","H6308","OPEN","(205) 759-7241",,,"LONG TERM CARE","2015-02-03T00:00:00.000Z","IMAGERY/OTHER",,"35401",
"Houston, Alabama, US",,"1108 Ross Clark Circle, 4Th Floor",,"38","Dothan","USA","Houston","01069","Y","0091336302","31.216289171","-85.36294421","622310","Specialty (Except Psychiatric And Substance Abuse) Hospitals","Alabama","4237","Proprietary","38","http://dph1.adph.state.al.us/FacilitiesDirectory","2018-08-09T00:00:00.000Z","01","AL","Alabama","H3506","OPEN","(334) 699-4300",,,"LONG TERM CARE","2015-02-03T00:00:00.000Z","IMAGERY/OTHER",,"36302",
"Butler, Alabama, US",,"515 Miranda Street",,"22","Georgiana","USA","Butler","01013","N","0008736033","31.636321588","-86.7430750519999","622110","General Medical And Surgical Hospitals","Alabama","4527","Proprietary","22","http://dph1.adph.state.al.us/FacilitiesDirectory","2018-08-09T00:00:00.000Z","01","AL","Alabama","H0701","OPEN","(334) 376-2205",,,"GENERAL ACUTE CARE","2014-02-10T00:00:00.000Z","IMAGERY/OTHER",,"36033",
"Jefferson, Alabama, US",,"701 Princeton Avenue, S.W.",,"505","Birmingham","USA","Jefferson","01073","Y","0000335211","33.498006532","-86.8471877759999","622110","General Medical And Surgical Hospitals","Alabama","4526","Proprietary","505","http://dph1.adph.state.al.us/FacilitiesDirectory","2018-08-09T00:00:00.000Z","01","AL","Alabama","H6101","OPEN","(205) 715-5309",,,"GENERAL ACUTE CARE","2014-03-12T00:00:00.000Z","IMAGERY/OTHER","http://www.bhsala.com/princeton/Home.aspx","35211",
"Morgan, Alabama, US",,"4218 Hwy 31 S",,"74","Decatur","USA","Morgan","01103","N","0009735609","34.5216166980001","-86.967029009","622210","Hospitals, Psychiatric (Except Convalescent)","Alabama","4525","Government - State","74","http://ph.state.al.us/facilitiesdirectory/%28S%28ydsic2jp55v0jj45incw4e33%29%29/Default.aspx","2012-06-05T00:00:00.000Z","01","AL","Alabama","01-4009","CLOSED","(256) 560-2200",,,"PSYCHIATRIC","2014-02-10T00:00:00.000Z","IMAGERY","http://www.narh.mh.alabama.gov","35609",
"Greene, Alabama, US",,"509 Wilson Avenue",,"20","Eutaw","USA","Greene","01063","Y","0005235462","32.84324894","-87.890483476","622110","General Medical And Surgical Hospitals","Alabama","4524","Government - Local","20","http://dph1.adph.state.al.us/FacilitiesDirectory","2018-08-09T00:00:00.000Z","01","AL","Alabama","01-0051","OPEN","(205) 931-6814",,,"GENERAL ACUTE CARE","2014-02-10T00:00:00.000Z","IMAGERY/OTHER",,"35462",
"Sumter, Alabama, US",,"751 Derby Drive",,"33","York","USA","Sumter","01119","N","0006236925","32.4919942220001","-88.295523761","622110","General Medical And Surgical Hospitals","Alabama","2315","Non-Profit","33","http://dph1.adph.state.al.us/FacilitiesDirectory","2018-08-09T00:00:00.000Z","01","AL","Alabama","H6002","OPEN","(205) 392-5263",,,"GENERAL ACUTE CARE","2014-02-10T00:00:00.000Z","IMAGERY",,"36925",
"Talladega, Alabama, US",,"604 Stone Avenue",,"122","Talladega","USA","Talladega","01121","Y","0003035161","33.4402768210001","-86.0907833959999","622110","General Medical And Surgical Hospitals","Alabama","1311","Non-Profit","122","http://dph1.adph.state.al.us/FacilitiesDirectory","2018-08-09T00:00:00.000Z","01","AL","Alabama","H6101","OPEN","(205) 715-5309","LEVEL III",,"GENERAL ACUTE CARE","2014-02-10T00:00:00.000Z","IMAGERY","http://www.bhsala.com/home_citizens.cfm?id=38","35161",
"Talladega, Alabama, US",,"315 West Hickory Street",,"163","Sylacauga","USA","Talladega","01121","N","0003435150","33.164560226","-86.2554875819999","622110","General Medical And Surgical Hospitals","Alabama","1310","Non-Profit","163","http://dph1.adph.state.al.us/FacilitiesDirectory","2018-08-09T00:00:00.000Z","01","AL","Alabama","H6102","OPEN","(256) 401-4000","LEVEL III",,"GENERAL ACUTE CARE","2014-02-10T00:00:00.000Z","IMAGERY","http://www.cvhealth.net","35150",
"Pickens, Alabama, US",,"241 Robert K. Wilson Drive",,"56","Carrollton","USA","Pickens","01107","Y","0009635447","33.2744756700001","-88.0886357479999","622110","General Medical And Surgical Hospitals","Alabama","2298","Government - District/Authority","56","http://dph1.adph.state.al.us/FacilitiesDirectory","2018-08-09T00:00:00.000Z","01","AL","Alabama","H5401","OPEN","(205) 367-2426",,,"GENERAL ACUTE CARE","2014-02-10T00:00:00.000Z","IMAGERY","http://www.dchsystem.com","35447",
"Marengo, Alabama, US",,"105 U.S. Highway 80, East",,"99","Demopolis","USA","Marengo","01091","Y","0091836732","32.504788531","-87.8363988","622110","General Medical And Surgical Hospitals","Alabama","1282","Government - District/Authority","99","http://dph1.adph.state.al.us/FacilitiesDirectory","2018-08-09T00:00:00.000Z","01","AL","Alabama","H4601","OPEN","(334) 287-2423","LEVEL III",,"GENERAL ACUTE CARE","2015-02-03T00:00:00.000Z","IMAGERY/OTHER",,"36732",
"Houston, Alabama, US",,"700 East Cottonwood Road",,"38","Dothan","USA","Houston","01069","N","0004236301","31.203815637","-85.3846011159999","622210","Psychiatric And Substance Abuse Hospitals","Alabama","1283","Proprietary","38","http://dph1.adph.state.al.us/FacilitiesDirectory","2018-08-09T00:00:00.000Z","01","AL","Alabama","H3505","OPEN","(334) 794-7373",,,"PSYCHIATRIC","2014-02-10T00:00:00.000Z","IMAGERY/OTHER","http://www.laureloaksbhc.com","36301",
"Coffee, Alabama, US",,"400 North Edwards Street",,"131","Enterprise","USA","Coffee","01031","N","0005336330","31.318772396","-85.855369739","622110","General Medical And Surgical Hospitals","Alabama","1284","Proprietary","131","http://dph1.adph.state.al.us/FacilitiesDirectory","2018-08-09T00:00:00.000Z","01","AL","Alabama","H1603","OPEN","(334) 347-0584","LEVEL III",,"GENERAL ACUTE CARE","2013-09-06T00:00:00.000Z","IMAGERY/OTHER","http://www.mcehospital.com","36330",
"Conecuh, Alabama, US",,"101 Crestview Avenue",,"58","Evergreen","USA","Conecuh","01035","Y","0004636401","31.4307985720001","-86.940483587","622110","General Medical And Surgical Hospitals","Alabama","1285","Proprietary","58","http://dph1.adph.state.al.us/FacilitiesDirectory","2018-08-09T00:00:00.000Z","01","AL","Alabama","H1801","OPEN","(251) 578-0166",,,"GENERAL ACUTE CARE","2014-03-12T00:00:00.000Z","IMAGERY/OTHER","http://www.evergreenmedical.org","36401",
"Covington, Alabama, US",,"849 South Three Notch Street",,"88","Andalusia","USA","Covington","01039","Y","0001336420","31.295795325","-86.494549112","622110","General Medical And Surgical Hospitals","Alabama","5422","Proprietary","88","http://dph1.adph.state.al.us/FacilitiesDirectory","2018-08-09T00:00:00.000Z","01","AL","Alabama","H2001","OPEN","(334) 222-8466","LEVEL III",,"GENERAL ACUTE CARE","2014-02-10T00:00:00.000Z","IMAGERY/OTHER","http://www.andalusiaregionalhospital.com","36420",
"Etowah, Alabama, US",,"3001 Scenic Highway",,"68","Gadsden","USA","Etowah","01055","N","0008035904","34.072425745","-86.019766069","622210","Psychiatric And Substance Abuse Hospitals","Alabama","1287","Proprietary","68","http://dph1.adph.state.al.us/FacilitiesDirectory","2018-08-09T00:00:00.000Z","01","AL","Alabama","H2802","OPEN","(256) 546-9265",,,"PSYCHIATRIC","2014-02-10T00:00:00.000Z","IMAGERY","http://www.mtnviewhospital.com","35904",
"Lauderdale, Alabama, US",,"205 Marengo Street",,"358","Florence","USA","Lauderdale","01077","Y","0004435631","34.793858034","-87.682850174","622110","General Medical And Surgical Hospitals","Alabama","1862","Proprietary","358","http://dph1.adph.state.al.us/FacilitiesDirectory","2018-08-09T00:00:00.000Z","01","AL","Alabama","H3902","OPEN","(256) 768-8400","LEVEL III",,"GENERAL ACUTE CARE","2014-03-12T00:00:00.000Z","IMAGERY/OTHER","http://www.chgroup.org/ecm/","35631",
"Madison, Alabama, US",,"One Hospital Drive",,"147","Huntsville","USA","Madison","01089","N","0008435801","34.693611397","-86.572171543","622110","General Medical And Surgical Hospitals","Alabama","1289","Proprietary","147","http://dph1.adph.state.al.us/FacilitiesDirectory","2018-08-09T00:00:00.000Z","01","AL","Alabama","H4501","OPEN","(256) 429-5000","LEVEL III",,"GENERAL ACUTE CARE","2013-10-02T00:00:00.000Z","IMAGERY","http://www.crestwoodmedcenter.com","35801",
"Madison, Alabama, US",,"5315 Millennium Drive",,"20","Huntsville","USA","Madison","01089","N","0001935806","34.75317024","-86.665696354","622210","Psychiatric And Substance Abuse Hospitals","Alabama","1290","Proprietary","20","http://dph1.adph.state.al.us/FacilitiesDirectory","2018-08-09T00:00:00.000Z","01","AL","Alabama","H4505","OPEN","(256) 964-6700",,,"PSYCHIATRIC","2014-02-10T00:00:00.000Z","IMAGERY","http://www.tnhealthmanagement.com/bhc/huntsville","35806",
"Madison, Alabama, US",,"4100 Goss Rd Sw",,,"Huntsville","USA","Madison","01089","Y","0000000133","34.6962142020001","-86.660230887","622110","General Medical And Surgical Hospitals","Alabama","1291","Government - Federal",,"http://dph1.adph.state.al.us","2018-08-09T00:00:00.000Z","01","AL","Alabama","H4503","OPEN","(256) 265-1000",,,"MILITARY","2015-10-21T00:00:00.000Z","IMAGERY/OTHER",,"35890",
"Shelby, Alabama, US",,"1000 First Street North",,"52","Alabaster","USA","Shelby","01117","Y","0091535007","33.253385521","-86.812987092","622310","Specialty (Except Psychiatric And Substance Abuse) Hospitals","Alabama","1861","Proprietary","52","http://dph1.adph.state.al.us/FacilitiesDirectory","2018-08-09T00:00:00.000Z","01","AL","Alabama","H5902","OPEN","(205) 783-8440",,,"LONG TERM CARE","2015-02-03T00:00:00.000Z","IMAGERY/OTHER",,"35007",
"Calhoun, Alabama, US",,"1701 South Pelham Road",,"104","Jacksonville","USA","Calhoun","01015","N","0006836265","33.784932246","-85.76355079","622110","General Medical And Surgical Hospitals","Alabama","1293","Proprietary","104","http://dph1.adph.state.al.us/FacilitiesDirectory","2018-08-09T00:00:00.000Z","01","AL","Alabama","H0804","OPEN","(256) 782-4538",,,"GENERAL ACUTE CARE","2019-05-09T00:00:00.000Z","IMAGERY","http://www.jmchealth.com","36265",
"Walker, Alabama, US",,"3400 Highway 78, East",,"267","Jasper","USA","Walker","01127","Y","0012035502","33.8427289040001","-87.235999582","622110","General Medical And Surgical Hospitals","Alabama","1294","Proprietary","267","http://dph1.adph.state.al.us/FacilitiesDirectory","2018-08-09T00:00:00.000Z","01","AL","Alabama","H6101","OPEN","(205) 715-5309","LEVEL III",,"GENERAL ACUTE CARE","2014-03-12T00:00:00.000Z","IMAGERY/OTHER","http://www.bhsala.com/home_walker.cfm?id=41","35502",
"Cullman, Alabama, US",,"1912 Alabama Highway 157",,"145","Cullman","USA","Cullman","01043","Y","0003735055","34.2013271970001","-86.805729571","622110","General Medical And Surgical Hospitals","Alabama","1860","Non-Profit","145","http://dph1.adph.state.al.us/FacilitiesDirectory","2018-08-09T00:00:00.000Z","01","AL","Alabama","H2201","OPEN","(256) 737-2598","LEVEL III",,"GENERAL ACUTE CARE","2014-02-10T00:00:00.000Z","IMAGERY","http://www.crmchospital.com","35055",
"Montgomery, Alabama, US",,"4465 Narrow Lane Road",,"70","Montgomery","USA","Montgomery","01101","N","0002336116","32.3191069820001","-86.280709803","622310","Rehabilitation Hospitals (Except Alcoholism, Drug Addiction)","Alabama","1297","Proprietary","70","http://dph1.adph.state.al.us/FacilitiesDirectory","2018-08-09T00:00:00.000Z","01","AL","Alabama","H5101","OPEN","(334) 284-7700",,,"REHABILITATION","2014-02-10T00:00:00.000Z","IMAGERY/OTHER","http://www.healthsouthmontgomery.com","36116",
"Montgomery, Alabama, US",,"1725 Pine Street",,"344","Montgomery","USA","Montgomery","01101","Y","0006636106","32.3669529960001","-86.2853855449999","622110","General Medical And Surgical Hospitals","Alabama","1298","Non-Profit","344","http://dph1.adph.state.al.us/FacilitiesDirectory","2018-08-09T00:00:00.000Z","01","AL","Alabama","H5103","OPEN","(334) 293-8000","LEVEL III",,"GENERAL ACUTE CARE","2014-02-10T00:00:00.000Z","IMAGERY/OTHER","http://www.jackson.org","36106",
"Lawrence, Alabama, US",,"202 Hospital St",,"98","Moulton","USA","Lawrence","01079","Y","0008835650","34.483414651","-87.285310435","622110","General Medical And Surgical Hospitals","Alabama","1299","Government - Local","98","http://dph1.adph.state.al.us/FacilitiesDirectory","2018-08-09T00:00:00.000Z","01","AL","Alabama","01-0059","OPEN","(256) 974-2200",,,"GENERAL ACUTE CARE","2014-03-12T00:00:00.000Z","IMAGERY/OTHER","http://www.lawrencemedicalcenter.com","35650",
"Covington, Alabama, US",,"702 Main Street",,"99","Opp","USA","Covington","01039","N","0005636467","31.2919582380001","-86.254526923","622110","General Medical And Surgical Hospitals","Alabama","1302","Non-Profit","99","http://dph1.adph.state.al.us/FacilitiesDirectory","2018-08-09T00:00:00.000Z","01","AL","Alabama","H2004","OPEN","(334) 493-3541","LEVEL III",,"GENERAL ACUTE CARE","2014-02-10T00:00:00.000Z","IMAGERY/OTHER","http://www.mizellmh.com","36467",
"Dale, Alabama, US",,"126 Hospital Avenue",,"89","Ozark","USA","Dale","01045","Y","0000836360","31.4515766550001","-85.632088035","622110","General Medical And Surgical Hospitals","Alabama","1303","Proprietary","89","http://dph1.adph.state.al.us/FacilitiesDirectory","2018-08-09T00:00:00.000Z","01","AL","Alabama","H2301","OPEN","(334) 774-2601","LEVEL III",,"GENERAL ACUTE CARE","2014-03-12T00:00:00.000Z","IMAGERY/OTHER","http://www.dalemedical.org","36360",
"St. Clair, Alabama, US",,"7063 Veterans Parkway",,"40","Pell City","USA","St. Clair","01115","Y","0011635125","33.605110768","-86.2774691019999","622110","General Medical And Surgical Hospitals","Alabama","1304","Non-Profit","40","http://dph1.adph.state.al.us/FacilitiesDirectory","2018-08-09T00:00:00.000Z","01","AL","Alabama","H5801","OPEN","(205) 338-3301",,,"GENERAL ACUTE CARE","2014-02-10T00:00:00.000Z","IMAGERY/OTHER","http://www.stvhs.com","35125",
"Clay, Alabama, US",,"83825 Highway 9",,"45","Ashland","USA","Clay","01027","Y","0003236251","33.2775639400001","-85.823982781","622110","General Medical And Surgical Hospitals","Alabama","2296","Government - Local","45","http://dph1.adph.state.al.us/FacilitiesDirectory","2018-08-09T00:00:00.000Z","01","AL","Alabama","01-0073","OPEN","(256) 354-2131",,,"GENERAL ACUTE CARE","2013-09-09T00:00:00.000Z","IMAGERY/OTHER","http://www.claycountyhospital.com","36251",
"Franklin, Alabama, US",,"211 Hospital Road",,"25","Red Bay","USA","Franklin","01059","Y","0010235582","34.458105759","-88.1473250619999","622110","General Medical And Surgical Hospitals","Alabama","1307","Government - District/Authority","25","http://dph1.adph.state.al.us/FacilitiesDirectory","2018-08-09T00:00:00.000Z","01","AL","Alabama","H3002","OPEN","(256) 356-9532",,,"CRITICAL ACCESS","2013-09-06T00:00:00.000Z","IMAGERY/OTHER","http://redbayhospital.net/","35582",
"Colbert, Alabama, US",,"1301 S.Montgomery Avenue",,"185","Sheffield","USA","Colbert","01033","Y","0006035660","34.745950151","-87.700261461","622110","General Medical And Surgical Hospitals","Alabama","1308","Government - District/Authority","185","http://dph1.adph.state.al.us/FacilitiesDirectory","2018-08-09T00:00:00.000Z","01","AL","Alabama","H1701","OPEN","(256) 386-4556","LEVEL III",,"GENERAL ACUTE CARE","2014-02-10T00:00:00.000Z","IMAGERY/OTHER","http://www.helenkeller.com","35660",
"Wilcox, Alabama, US",,"317 Mcwilliams Avenue",,"30","Camden","USA","Wilcox","01131","Y","0006436726","31.9975251480001","-87.300257836","622110","General Medical And Surgical Hospitals","Alabama","1280","Government - Local","30","http://dph1.adph.state.al.us/FacilitiesDirectory","2018-08-09T00:00:00.000Z","01","AL","Alabama","H6601","OPEN","(334) 682-4131",,,"GENERAL ACUTE CARE","2014-02-10T00:00:00.000Z","IMAGERY/OTHER",,"36726",
"Mobile, Alabama, US",,"5800 Southland Drive",,"60","Mobile","USA","Mobile","01097","N","0000436693","30.6248084910001","-88.178008125","622210","Psychiatric And Substance Abuse Hospitals","Alabama","5423","Proprietary","60","http://dph1.adph.state.al.us/FacilitiesDirectory","2018-08-09T00:00:00.000Z","01","AL","Alabama","H4912","OPEN","(251) 450-5901",,,"PSYCHIATRIC","2014-02-10T00:00:00.000Z","IMAGERY/OTHER","http://www.altapointe.org","36693",
"Tuscaloosa, Alabama, US",,"2700 Hospital Drive",,"204","Northport","USA","Tuscaloosa","01125","N","0007435476","33.23398145","-87.570910898","622110","General Medical And Surgical Hospitals","Alabama","1301","Government - District/Authority","204","http://dph1.adph.state.al.us/FacilitiesDirectory","2018-08-09T00:00:00.000Z","01","AL","Alabama","01-0145","OPEN","(205) 759-7964",,,"GENERAL ACUTE CARE","2014-02-10T00:00:00.000Z","IMAGERY/OTHER","http://www.dchsystem.com","35476",
"Clarke, Alabama, US",,"220 Hospital Drive",,"35","Jackson","USA","Clarke","01025","Y","0006736545","31.53106846","-87.895134564","622110","General Medical And Surgical Hospitals","Alabama","5900","Proprietary","35","http://dph1.adph.state.al.us/FacilitiesDirectory","2018-08-09T00:00:00.000Z","01","AL","Alabama","H1302","OPEN","(251) 246-9021","LEVEL III",,"GENERAL ACUTE CARE","2014-02-10T00:00:00.000Z","IMAGERY/OTHER","http://www.jacksonmedicalcenter.org","36545",
"Marion, Alabama, US",,"1530 U. S. Hwy 43",,"71","Winfield","USA","Marion","01093","Y","0010035594","33.93053767","-87.824524735","622110","General Medical And Surgical Hospitals","Alabama","5919","Proprietary","71","http://dph1.adph.state.al.us/FacilitiesDirectory","2018-08-09T00:00:00.000Z","01","AL","Alabama","01-0086","OPEN","(205) 487-7736","LEVEL III",,"GENERAL ACUTE CARE","2013-09-06T00:00:00.000Z","IMAGERY/OTHER","http://www.northwestmedcenter.com","35594",
"Chambers, Alabama, US",,"4800 48Th Street",,"115","Valley","USA","Chambers","01017","N","0005036854","32.824598112","-85.168702674","622110","General Medical And Surgical Hospitals","Alabama","5918","Non-Profit","115","http://dph1.adph.state.al.us/FacilitiesDirectory","2018-08-09T00:00:00.000Z","01","AL","Alabama","H0903","OPEN","(334) 756-1401",,,"GENERAL ACUTE CARE","2014-02-10T00:00:00.000Z","IMAGERY/OTHER","http://www.lanierhospital.com","36854",
"Tuscaloosa, Alabama, US",,"809 University Boulevard East",,"583","Tuscaloosa","USA","Tuscaloosa","01125","Y","0000935401","33.204820526","-87.5274194689999","622110","General Medical And Surgical Hospitals","Alabama","5915","Government - District/Authority","583","http://dph1.adph.state.al.us/FacilitiesDirectory","2018-08-09T00:00:00.000Z","01","AL","Alabama","H6301","OPEN","(205) 759-7111","LEVEL III",,"GENERAL ACUTE CARE","2014-03-12T00:00:00.000Z","IMAGERY/OTHER","http://www.dchsystem.com","35401",
"Pike, Alabama, US",,"1330 Highway 231",,"97","Troy","USA","Pike","01109","Y","0011736081","31.781515653","-85.94556625","622110","General Medical And Surgical Hospitals","Alabama","5913","Proprietary","97","http://dph1.adph.state.al.us/FacilitiesDirectory","2018-08-09T00:00:00.000Z","01","AL","Alabama","01-0126","OPEN","(334) 670-5000","LEVEL III",,"GENERAL ACUTE CARE","2013-09-03T00:00:00.000Z","IMAGERY/OTHER","http://www.troymedicalcenter.com","36081",
"Jackson, Alabama, US",,"380 Woods Cove Road",,"170","Scottsboro","USA","Jackson","01071","Y","0006135768","34.6620379330001","-86.047490796","622110","General Medical And Surgical Hospitals","Alabama","5912","Government - District/Authority","170","http://dph1.adph.state.al.us/FacilitiesDirectory","2018-08-09T00:00:00.000Z","01","AL","Alabama","H3601","OPEN","(256) 259-4444","LEVEL III",,"GENERAL ACUTE CARE","2014-02-10T00:00:00.000Z","IMAGERY/OTHER","http://www.highlandsmedcenter.com","35768",
"Franklin, Alabama, US",,"15155 Highway 43",,"100","Russellville","USA","Franklin","01059","Y","0010535653","34.5108181190001","-87.718386067","622110","General Medical And Surgical Hospitals","Alabama","5911","Proprietary","100","http://dph1.adph.state.al.us/FacilitiesDirectory","2018-08-09T00:00:00.000Z","01","AL","Alabama","H3001","OPEN","(256) 332-1611","LEVEL III",,"GENERAL ACUTE CARE","2013-09-06T00:00:00.000Z","IMAGERY/OTHER","http://www.russellvillehospital.com","35653",
"Russell, Alabama, US",,"3715 Highway 280",,"48","Phenix City","USA","Russell","01113","N","0008336867","32.4988481680001","-85.046407334","622310","Rehabilitation Hospitals (Except Alcoholism, Drug Addiction)","Alabama","5910","Proprietary","48","http://dph1.adph.state.al.us/FacilitiesDirectory","2018-08-09T00:00:00.000Z","01","AL","Alabama","H5702","OPEN","(334) 732-2200",,,"REHABILITATION","2013-09-03T00:00:00.000Z","IMAGERY","http://www.regionalrehabhospital.com","36867",
"Lee, Alabama, US",,"2000 Pepperell Parkway",,"314","Opelika","USA","Lee","01081","Y","0001236801","32.638524869","-85.4044747899999","622110","General Medical And Surgical Hospitals","Alabama","5908","Government - District/Authority","314","http://dph1.adph.state.al.us/FacilitiesDirectory","2018-08-09T00:00:00.000Z","01","AL","Alabama","H4101","OPEN","(334) 749-3411","LEVEL III",,"GENERAL ACUTE CARE","2014-02-10T00:00:00.000Z","IMAGERY/OTHER","http://www.eamc.org","36801",
"Colbert, Alabama, US",,"201 W. Avalon Avenue",,"178","Muscle Shoals","USA","Colbert","01033","Y","0010935661","34.747192958","-87.67621342","622110","General Medical And Surgical Hospitals","Alabama","5907","Government - District/Authority","178","http://dph1.adph.state.al.us/FacilitiesDirectory","2018-08-09T00:00:00.000Z","01","AL","Alabama","01-0157","OPEN","(256) 386-1600",,,"GENERAL ACUTE CARE","2014-02-10T00:00:00.000Z","IMAGERY/OTHER","http://www.shoalshospital.com","35661",
"Elmore, Alabama, US",,"805 Friendship Road",,"69","Tallassee","USA","Elmore","01051","Y","0003336078","32.5339098320001","-85.912246613","622110","General Medical And Surgical Hospitals","Alabama","5717","Proprietary","69","http://dph1.adph.state.al.us/FacilitiesDirectory","2018-08-09T00:00:00.000Z","01","AL","Alabama","H2602","OPEN","(334) 283-6541","LEVEL III",,"GENERAL ACUTE CARE","2014-03-12T00:00:00.000Z","IMAGERY/OTHER","http://chal.org/","36078","1225"
"Tuscaloosa, Alabama, US",,"200 University Boulevard",,,"Tuscaloosa","USA","Tuscaloosa","01125","N","0002135401","33.2163030900001","-87.53815802","622210","Psychiatric And Substance Abuse Hospitals","Alabama","5731","Government - State",,"http://dph1.adph.state.al.us/FacilitiesDirectory","2018-08-09T00:00:00.000Z","01","AL","Alabama","H6304","OPEN","(205) 759-0750",,,"PSYCHIATRIC","2014-02-10T00:00:00.000Z","IMAGERY",,"35401",
"Monroe, Alabama, US",,"2016 South Alabama Avenue",,"94","Monroeville","USA","Monroe","01099","Y","0007836461","31.4978172020001","-87.3207666279999","622110","General Medical And Surgical Hospitals","Alabama","5905","Government - District/Authority","94","http://dph1.adph.state.al.us/FacilitiesDirectory","2018-08-09T00:00:00.000Z","01","AL","Alabama","H5001","OPEN","(251) 575-3111","LEVEL III",,"GENERAL ACUTE CARE","2014-02-10T00:00:00.000Z","IMAGERY/OTHER","http://www.mchcare.com","36461",
"Baldwin, Alabama, US",,"1815 Hand Avenue",,"70","Bay Minette","USA","Baldwin","01003","Y","0009436507","30.903934362","-87.785022496","622110","General Medical And Surgical Hospitals","Alabama","5848","Non-Profit","70","http://dph1.adph.state.al.us/FacilitiesDirectory","2018-08-09T00:00:00.000Z","01","AL","Alabama","H0201","OPEN","(251) 937-5521","LEVEL III",,"GENERAL ACUTE CARE","2014-02-10T00:00:00.000Z","IMAGERY/OTHER","http://www.mobileinfirmary.org","36507",
"Mobile, Alabama, US",,"3719 Dauphin Street",,"263","Mobile","USA","Mobile","01097","Y","0011136608","30.684517488","-88.131336291","622110","General Medical And Surgical Hospitals","Alabama","5904","Non-Profit","263","http://dph1.adph.state.al.us/FacilitiesDirectory","2018-08-09T00:00:00.000Z","01","AL","Alabama","H4906","OPEN","(251) 460-5220","LEVEL III",,"GENERAL ACUTE CARE","2014-02-10T00:00:00.000Z","IMAGERY/OTHER","http://www.springhillmemorial.com","36608",
"Mobile, Alabama, US",,"6801 Airport Boulevard",,"349","Mobile","USA","Mobile","01097","Y","0010136685","30.679327657","-88.199079374","622110","General Medical And Surgical Hospitals","Alabama","5903","Non-Profit","349","http://dph1.adph.state.al.us/FacilitiesDirectory","2018-08-09T00:00:00.000Z","01","AL","Alabama","01-0090","OPEN","(251) 633-1000","LEVEL III",,"GENERAL ACUTE CARE","2014-02-10T00:00:00.000Z","IMAGERY/OTHER","http://www.providencehospital.org","36685",
"Mobile, Alabama, US",,"5 Mobile Infirmary Circle",,"22","Mobile","USA","Mobile","01097","Y","0003136607","30.696900692","-88.0802905749999","622310","Specialty (Except Psychiatric And Substance Abuse) Hospitals","Alabama","5902","Proprietary","22","http://dph1.adph.state.al.us/FacilitiesDirectory","2018-08-09T00:00:00.000Z","01","AL","Alabama","H4909","OPEN","(251) 435-5822",,,"LONG TERM CARE","2014-02-10T00:00:00.000Z","IMAGERY","https://www.infirmaryhealth.org/affiliates/infirmary-ltac","36607",
"Madison, Alabama, US",,"8375 Highway 72 West",,"60","Madison","USA","Madison","01089","N","0007135758","34.747060043","-86.764527877","622110","General Medical And Surgical Hospitals","Alabama","5901","Non-Profit","60","http://dph1.adph.state.al.us/FacilitiesDirectory","2018-08-09T00:00:00.000Z","01","AL","Alabama",,"OPEN","(256) 265-5010",,,"GENERAL ACUTE CARE","2014-02-10T00:00:00.000Z","IMAGERY/OTHER","http://madisonalhospital.org/","35758",
"Jefferson, Alabama, US",,"810 St. Vincent's Drive",,"409","Birmingham","USA","Jefferson","01073","N","0008935205","33.507477169","-86.789121531","622110","General Medical And Surgical Hospitals","Alabama","5866","Non-Profit","409","http://dph1.adph.state.al.us/FacilitiesDirectory","2018-08-09T00:00:00.000Z","01","AL","Alabama","H3714","OPEN","(205) 939-7000","LEVEL III",,"GENERAL ACUTE CARE","2014-02-10T00:00:00.000Z","IMAGERY/OTHER","http://www.stvhs.com","35205",
"Madison, Alabama, US",,"101 Sivley Road",,"881","Huntsville","USA","Madison","01089","Y","0006335801","34.721433099","-86.580805509","622110","General Medical And Surgical Hospitals","Alabama","5899","Government - District/Authority","881","http://dph1.adph.state.al.us/FacilitiesDirectory","2018-08-09T00:00:00.000Z","01","AL","Alabama","H4503","OPEN","(256) 265-1000","LEVEL I",,"GENERAL ACUTE CARE","2014-02-10T00:00:00.000Z","IMAGERY/OTHER","http://www.huntsvillehospital.org","35801",
"Madison, Alabama, US",,"245 Governors Dr Se",,,"Huntsville","USA","Madison","01089","Y","0000000130","34.7200515170001","-86.574688699","622110","Children's Hospitals, General","Alabama","5898",,,"http://dph1.adph.state.al.us/FacilitiesDirectory","2018-08-09T00:00:00.000Z","01","AL","Alabama",,"OPEN","(256) 265-8133",,,"CHILDREN","2015-10-21T00:00:00.000Z","IMAGERY/OTHER","http://www.huntsvillehospital.org/womenchildren/","35801",
"Madison, Alabama, US",,"107 Governors Drive",,"70","Huntsville","USA","Madison","01089","Y","0090235801","34.7192094280001","-86.579868865","622310","Rehabilitation Hospitals (Except Alcoholism, Drug Addiction)","Alabama","5896","Proprietary",,"http://dph1.adph.state.al.us/FacilitiesDirectory","2018-08-09T00:00:00.000Z","01","AL","Alabama","H4502","OPEN","(256) 535-2300",,,"REHABILITATION","2015-02-03T00:00:00.000Z","IMAGERY/OTHER",,"35801",
"Hale, Alabama, US",,"508 Greene Street",,"39","Greensboro","USA","Hale","01065","N","0005736744","32.695372236","-87.586934194","622110","General Medical And Surgical Hospitals","Alabama","5887","Government - Local","39","http://dph1.adph.state.al.us/FacilitiesDirectory","2018-08-09T00:00:00.000Z","01","AL","Alabama","H3301","OPEN","(334) 624-3024",,,"GENERAL ACUTE CARE","2013-09-06T00:00:00.000Z","IMAGERY/OTHER","http://www.halecountyhospital.com","36744",
"Butler, Alabama, US",,"29 L. V. Stabler Drive",,"72","Greenville","USA","Butler","01013","Y","0004036037","31.829034402","-86.646364202","622110","General Medical And Surgical Hospitals","Alabama","5886","Proprietary","72","http://dph1.adph.state.al.us/FacilitiesDirectory","2018-08-09T00:00:00.000Z","01","AL","Alabama","H0702","OPEN","(334) 383-2200","LEVEL III",,"GENERAL ACUTE CARE","2014-02-10T00:00:00.000Z","IMAGERY/OTHER","http://www.lvstabler.com","36037",
"Geneva, Alabama, US",,"1200 West Maple Avenue",,"83","Geneva","USA","Geneva","01061","Y","0010836340","31.048793989","-85.892536692","622110","General Medical And Surgical Hospitals","Alabama","5884","Government - District/Authority","83","http://dph1.adph.state.al.us/FacilitiesDirectory","2018-08-09T00:00:00.000Z","01","AL","Alabama","H3101","OPEN","(334) 684-3655",,,"GENERAL ACUTE CARE","2014-03-12T00:00:00.000Z","IMAGERY/OTHER","http://www.alaweb.com/ tgarske","36340",
"Houston, Alabama, US",,"1736 East Main Street",,"51","Dothan","USA","Houston","01069","Y","0002236301","31.2179119100001","-85.365812633","622310","Rehabilitation Hospitals (Except Alcoholism, Drug Addiction)","Alabama","5882","Proprietary","51","http://dph1.adph.state.al.us/FacilitiesDirectory","2018-08-09T00:00:00.000Z","01","AL","Alabama","H3504","OPEN","(334) 712-6333",,,"REHABILITATION","2014-03-12T00:00:00.000Z","IMAGERY/OTHER","http://www.healthsouthdothan.com","36301",
"Jefferson, Alabama, US",,"6869 Fifth Avenue, South",,"94","Birmingham","USA","Jefferson","01073","N","0002935212","33.5488342840001","-86.730183296","622210","Psychiatric And Substance Abuse Hospitals","Alabama","5864","Proprietary","94","http://dph1.adph.state.al.us/FacilitiesDirectory","2018-08-09T00:00:00.000Z","01","AL","Alabama","H3707","OPEN","(205) 833-9000",,,"PSYCHIATRIC","2014-02-10T00:00:00.000Z","IMAGERY/OTHER","http://www.hillcrestbhs.com","35212",
"Jefferson, Alabama, US",,"3800 Ridgeway Drive",,"100","Birmingham","USA","Jefferson","01073","N","0005835209","33.469115849","-86.788334989","622310","Rehabilitation Hospitals (Except Alcoholism, Drug Addiction)","Alabama","5858","Proprietary","100","http://dph1.adph.state.al.us/FacilitiesDirectory","2018-08-09T00:00:00.000Z","01","AL","Alabama","H3709","OPEN","(205) 868-2000",,,"REHABILITATION","2013-09-05T00:00:00.000Z","IMAGERY/OTHER","http://www.healthsouthlakeshorerehab.com","35209",
"Jefferson, Alabama, US",,"50 Medical Park East Drive",,"362","Birmingham","USA","Jefferson","01073","Y","0009035235","33.596154515","-86.6676110189999","622110","General Medical And Surgical Hospitals","Alabama","5867","Non-Profit","362","http://dph1.adph.state.al.us/FacilitiesDirectory","2018-08-09T00:00:00.000Z","01","AL","Alabama","H3705","OPEN","(205) 838-3000","LEVEL III",,"GENERAL ACUTE CARE","2014-02-10T00:00:00.000Z","IMAGERY/OTHER","http://www.stvhs.com/east/","35235",
"Jefferson, Alabama, US",,"800 Montclair Road",,"534","Birmingham","USA","Jefferson","01073","Y","0090635213","33.5170941760001","-86.7494429079999","622110","General Medical And Surgical Hospitals","Alabama","5868",,,"http://dph1.adph.state.al.us","2014-09-18T00:00:00.000Z","01","AL","Alabama",,"CLOSED","(205) 592-1000",,,"GENERAL ACUTE CARE","2015-02-03T00:00:00.000Z","IMAGERY/OTHER",,"35213",
"Tuscaloosa, Alabama, US",,"1301 Jack Warner Parkway N.E.",,"114","Tuscaloosa","USA","Tuscaloosa","01125","N","0011435404","33.2186743980001","-87.5176647069999","622210","Psychiatric And Substance Abuse Hospitals","Alabama","5917","Proprietary","114","http://dph1.adph.state.al.us/FacilitiesDirectory","2018-08-09T00:00:00.000Z","01","AL","Alabama","01-4011","OPEN","(205) 556-7060",,,"PSYCHIATRIC","2014-02-10T00:00:00.000Z","IMAGERY","http://mh.alabama.gov/","35404",
"Mobile, Alabama, US",,"1700 Center Street",,"152","Mobile","USA","Mobile","01097","Y","0090736604","30.697683817","-88.0778076399999","622110","Children's Hospitals, General","Alabama","3615","Government - State","152","http://dph1.adph.state.al.us/FacilitiesDirectory","2018-08-09T00:00:00.000Z","01","AL","Alabama","H4901","OPEN","(251) 415-1000","LEVEL III",,"CHILDREN","2015-02-03T00:00:00.000Z","IMAGERY/OTHER",,"36604","3391"
"Russell, Alabama, US",,"4401 River Chase Drive",,"70","Phenix City","USA","Russell","01113","N","0006536867","32.508014256","-85.0088847439999","622110","General Medical And Surgical Hospitals","Alabama","3620","Proprietary","70","http://dph1.adph.state.al.us/FacilitiesDirectory","2018-08-09T00:00:00.000Z","01","AL","Alabama","01-0168","OPEN","(334) 732-3000",,,"GENERAL ACUTE CARE","2014-02-10T00:00:00.000Z","IMAGERY/OTHER","http://www.jackhughstonmemorialhospital.com","36867",
"Montgomery, Alabama, US",,"2105 East South Boulevard",,"454","Montgomery","USA","Montgomery","01101","Y","0001736111","32.3281539480001","-86.27754935","622110","General Medical And Surgical Hospitals","Alabama","3619","Government - District/Authority","454","http://dph1.adph.state.al.us/FacilitiesDirectory","2018-08-09T00:00:00.000Z","01","AL","Alabama","H5102","OPEN","(334) 286-2987","LEVEL II",,"GENERAL ACUTE CARE","2014-03-12T00:00:00.000Z","IMAGERY/OTHER","http://www.baptistfirst.org","36111","0010"
"Mobile, Alabama, US",,"2451 Fillingim Street",,"406","Mobile","USA","Mobile","01097","Y","0009836617","30.70706198","-88.0983348569999","622110","General Medical And Surgical Hospitals","Alabama","3616","Government - State","406","http://dph1.adph.state.al.us/FacilitiesDirectory","2018-08-09T00:00:00.000Z","01","AL","Alabama","01-0087","OPEN","(251) 471-7110","LEVEL I",,"GENERAL ACUTE CARE","2014-02-10T00:00:00.000Z","IMAGERY/OTHER","http://www.usahealthsystem.com/usamc","36617",
"Mobile, Alabama, US",,"5 Mobile Infirmary Center",,"677","Mobile","USA","Mobile","01097","Y","0013636652","30.695724958","-88.0797761919999","622110","General Medical And Surgical Hospitals","Alabama","3614","Non-Profit","677","http://dph1.adph.state.al.us/FacilitiesDirectory","2018-08-09T00:00:00.000Z","01","AL","Alabama","H4904","OPEN","(251) 435-2400","LEVEL III",,"GENERAL ACUTE CARE","2016-03-08T00:00:00.000Z","IMAGERY/OTHER","https://www.infirmaryhealth.org/hospitals/mobile-infirmary","36652",
"Crenshaw, Alabama, US",,"101 Hospital Circle",,"65","Luverne","USA","Crenshaw","01041","Y","0003536049","31.693544069","-86.265045701","622110","General Medical And Surgical Hospitals","Alabama","3613","Proprietary","65","http://dph1.adph.state.al.us/FacilitiesDirectory","2018-08-09T00:00:00.000Z","01","AL","Alabama","H2101","OPEN","(334) 335-3374",,,"GENERAL ACUTE CARE","2014-02-10T00:00:00.000Z","IMAGERY/OTHER",,"36049",
"Winston, Alabama, US",,"42024 Highway 195",,"59","Haleyville","USA","Winston","01133","Y","0007035565","34.2419118660001","-87.591365799","622110","General Medical And Surgical Hospitals","Alabama","3605","Non-Profit","59","http://dph1.adph.state.al.us/FacilitiesDirectory","2018-08-09T00:00:00.000Z","01","AL","Alabama",,"OPEN","(205) 485-7113",,,"GENERAL ACUTE CARE","2013-09-03T00:00:00.000Z","IMAGERY/OTHER","http://www.lifepointhospitals.com/serving-communities/community/lakeland-community-hospital/","35565",
"Etowah, Alabama, US",,"600 South Third Street",,"281","Gadsden","USA","Etowah","01055","N","0010335999","34.0043255430001","-86.00342706","622110","General Medical And Surgical Hospitals","Alabama","3604","Proprietary","281","http://dph1.adph.state.al.us/FacilitiesDirectory","2018-08-09T00:00:00.000Z","01","AL","Alabama","H2803","OPEN","(256) 543-5200","LEVEL III",,"GENERAL ACUTE CARE","2014-02-10T00:00:00.000Z","IMAGERY/OTHER","http://www.riverviewregional.com","35999","0268"
"Covington, Alabama, US",,"24273 Fifth Avenue",,"23","Florala","USA","Covington","01039","Y","0001436442","31.000485414","-86.313137967","622110","General Medical And Surgical Hospitals","Alabama","3603","Proprietary","23","http://ph.state.al.us/facilitiesdirectory/%28S%28ydsic2jp55v0jj45incw4e33%29%29/Default.aspx","2012-06-05T00:00:00.000Z","01","AL","Alabama","01-0066","CLOSED","(334) 858-3287",,,"GENERAL ACUTE CARE","2014-02-10T00:00:00.000Z","IMAGERY/OTHER","http://www.floralahospital.org","36442",
"Bibb, Alabama, US",,"208 Pierson Avenue",,"35","Centreville","USA","Bibb","01007","Y","0002035042","32.9513583660001","-87.1483112339999","622110","General Medical And Surgical Hospitals","Alabama","3598","Government - District/Authority","35","http://dph1.adph.state.al.us/FacilitiesDirectory","2018-08-09T00:00:00.000Z","01","AL","Alabama","H0401","OPEN","(205) 926-4881",,,"GENERAL ACUTE CARE","2014-02-10T00:00:00.000Z","IMAGERY","http://www.bibbmedicalcenter.com","35042",
"Cullman, Alabama, US",,"1910 Cherokee Avenue, Sw",,"40","Cullman","USA","Cullman","01043","Y","0010635055","34.150921317","-86.8459848649999","622210","Psychiatric And Substance Abuse Hospitals","Alabama","3599","Proprietary","40","http://dph1.adph.state.al.us/FacilitiesDirectory","2018-08-09T00:00:00.000Z","01","AL","Alabama","H2203","OPEN","(256) 739-1239",,,"PSYCHIATRIC","2014-02-10T00:00:00.000Z","IMAGERY/OTHER",,"35055",
"Marshall, Alabama, US",,"2505 U.S. Highway 431, South",,"150","Boaz","USA","Marshall","01095","Y","0009135957","34.2214658500001","-86.160628168","622110","General Medical And Surgical Hospitals","Alabama","3596","Government - District/Authority","150","http://dph1.adph.state.al.us/FacilitiesDirectory","2018-08-09T00:00:00.000Z","01","AL","Alabama","H4804","OPEN","(256) 894-6712","LEVEL III",,"GENERAL ACUTE CARE","2014-03-12T00:00:00.000Z","IMAGERY/OTHER","http://www.mmcenters.com//index.php/facilities/marshall_south","35957",
"Jefferson, Alabama, US",,"1720 University Boulevard",,"106","Birmingham","USA","Jefferson","01073","Y","0000635233","33.5040061030001","-86.802891909","622110","General Medical And Surgical Hospitals","Alabama","3594","Government - District/Authority","106","http://dph1.adph.state.al.us/FacilitiesDirectory","2018-08-09T00:00:00.000Z","01","AL","Alabama","01-0018","OPEN","(205) 325-8100","LEVEL I",,"GENERAL ACUTE CARE","2014-03-12T00:00:00.000Z","IMAGERY","http://www.uabmedicine.org/eye#/1213770818351/?keyword=&submit=Submit&reset=Reset&page=1&articles=true","35233",
"Calhoun, Alabama, US",,"400 East Tenth Street",,"323","Anniston","USA","Calhoun","01015","Y","0091636202","33.6555752560001","-85.8232421389999","622110","General Medical And Surgical Hospitals","Alabama","3593",,"323","http://dph1.adph.state.al.us/FacilitiesDirectory","2018-08-09T00:00:00.000Z","01","AL","Alabama","H0801","OPEN","(256) 235-5121","LEVEL III",,"GENERAL ACUTE CARE","2015-02-03T00:00:00.000Z","IMAGERY/OTHER",,"36202","2208"
"Choctaw, Alabama, US",,"401 Vanity Fair Drive",,"25","Butler","USA","Choctaw","01023","Y","0002836904","32.0931053370001","-88.209492435","622110","General Medical And Surgical Hospitals","Alabama","5873","Non-Profit","25","http://dph1.adph.state.al.us/FacilitiesDirectory","2018-08-09T00:00:00.000Z","01","AL","Alabama","H1201","OPEN","(205) 459-9100",,,"CRITICAL ACCESS","2013-09-09T00:00:00.000Z","IMAGERY","http://www.choctawgeneral.com/cgh/","36904",
"Calhoun, Alabama, US",,"400 East 10Th Street",,"38","Anniston","USA","Calhoun","01015","Y","0008136202","33.655655193","-85.823239616","622310","Specialty (Except Psychiatric And Substance Abuse) Hospitals","Alabama","3592","Proprietary","38","http://dph1.adph.state.al.us/FacilitiesDirectory","2018-08-09T00:00:00.000Z","01","AL","Alabama","H0805","OPEN","(256) 741-6141","LEVEL III",,"LONG TERM CARE","2014-03-12T00:00:00.000Z","IMAGERY/OTHER","http://www.nolandhealth.com","36202",
"Washington, Arkansas, US",,"153 East Monte Painter Drive",,"60","Fayetteville","USA","Washington","05143","N","0002772703","36.109099384","-94.154845038","622310","Rehabilitation Hospitals (Except Alcoholism, Drug Addiction)","Arkansas","202","Proprietary","60","http://www.healthy.arkansas.gov/programsServices/hsLicensingRegulation/HealthFacilityServices/Pages/ProviderLists.aspx","2018-08-08T00:00:00.000Z","05","AR","Arkansas","043032","OPEN","(479) 444-2200",,,"REHABILITATION","2013-09-18T00:00:00.000Z","IMAGERY/OTHER","http://www.healthsouthfayetteville.com","72703",
"Ouachita, Arkansas, US",,"638 California Avenue",,"100","Camden","USA","Ouachita","05103","Y","0006171701","33.5758211300001","-92.8367393299999","622110","General Medical And Surgical Hospitals","Arkansas","186","Non-Profit","100","http://www.healthy.arkansas.gov/programsServices/hsLicensingRegulation/HealthFacilityServices/Pages/ProviderLists.aspx","2018-08-08T00:00:00.000Z","05","AR","Arkansas","040050","OPEN","(870) 836-1000","LEVEL IV",,"GENERAL ACUTE CARE","2014-02-10T00:00:00.000Z","IMAGERY/OTHER","http://www.ouachitamedcenter.com","71701",
"Washington, Arkansas, US",,"4253 Crossover Road",,"114","Fayetteville","USA","Washington","05143","Y","0009372703","36.1278907560001","-94.119851426","622210","Psychiatric And Substance Abuse Hospitals","Arkansas","203","Proprietary","114","http://www.healthy.arkansas.gov/programsServices/hsLicensingRegulation/HealthFacilityServices/Pages/ProviderLists.aspx","2018-08-08T00:00:00.000Z","05","AR","Arkansas","044004","OPEN","(479) 521-5731",,,"PSYCHIATRIC","2014-02-10T00:00:00.000Z","IMAGERY/OTHER","http://www.vistahealthservices.com","72703",
"Boone, Arkansas, US",,"620 North Willow",,"174","Harrison","USA","Boone","05009","Y","0000572601","36.2365313550001","-93.1091393739999","622110","General Medical And Surgical Hospitals","Arkansas","187","Non-Profit","174","http://www.healthy.arkansas.gov/programsServices/hsLicensingRegulation/HealthFacilityServices/Pages/ProviderLists.aspx","2018-08-08T00:00:00.000Z","05","AR","Arkansas","040017","OPEN","(870) 365-2000","LEVEL III",,"GENERAL ACUTE CARE","2014-03-12T00:00:00.000Z","IMAGERY/OTHER","http://www.narmc.com","72601",
"Dallas, Arkansas, US",,"201 North Clifton Street",,"25","Fordyce","USA","Dallas","05039","Y","0002571742","33.81085539","-92.425587644","622110","General Medical And Surgical Hospitals","Arkansas","184","Government - Local","25","http://www.healthy.arkansas.gov/programsServices/hsLicensingRegulation/HealthFacilityServices/Pages/ProviderLists.aspx","2018-08-08T00:00:00.000Z","05","AR","Arkansas","041317","OPEN","(870) 352-6300","LEVEL IV",,"CRITICAL ACCESS","2014-03-12T00:00:00.000Z","IMAGERY/OTHER","http://www.dallascountymedicalcenter.com","71742",
"Randolph, Arkansas, US",,"2801 Medical Center Drive",,"50","Pocahontas","USA","Randolph","05121","Y","0008872455","36.2897602730001","-90.99738763","622110","General Medical And Surgical Hospitals","Arkansas","183","Non-Profit","50","http://www.healthy.arkansas.gov/programsServices/hsLicensingRegulation/HealthFacilityServices/Pages/ProviderLists.aspx","2018-08-08T00:00:00.000Z","05","AR","Arkansas","040047","OPEN","(870) 892-6000","LEVEL IV",,"GENERAL ACUTE CARE","2014-02-10T00:00:00.000Z","IMAGERY/OTHER","http://www.fiveriversmedicalcenter.com","72455",
"Bradley, Arkansas, US",,"404 South Bradley Street",,"35","Warren","USA","Bradley","05011","Y","0000671671","33.6103641340001","-92.059254885","622110","General Medical And Surgical Hospitals","Arkansas","182","Non-Profit","35","http://www.healthy.arkansas.gov/programsServices/hsLicensingRegulation/HealthFacilityServices/Pages/ProviderLists.aspx","2018-08-08T00:00:00.000Z","05","AR","Arkansas","041327","OPEN","(870) 226-3731",,,"CRITICAL ACCESS","2014-02-10T00:00:00.000Z","IMAGERY","http://www.bradleycountymedicalcenter.com","71671",
"Stone, Arkansas, US",,"2106 East Main Street, Highway 14 East",,"25","Mountain View","USA","Stone","05137","Y","0001672560","35.856583126","-92.0828645349999","622110","General Medical And Surgical Hospitals","Arkansas","188","Non-Profit","25","http://www.healthy.arkansas.gov/programsServices/hsLicensingRegulation/HealthFacilityServices/Pages/ProviderLists.aspx","2018-08-08T00:00:00.000Z","05","AR","Arkansas","041310","OPEN","(870) 269-4361","LEVEL IV",,"CRITICAL ACCESS","2014-02-10T00:00:00.000Z","IMAGERY/OTHER","http://www.whiteriverhealthsystem.com","72560",
"Crittenden, Arkansas, US",,"200 West Tyler Avenue",,"152","West Memphis","USA","Crittenden","05035","Y","0004100000","35.1431102350001","-90.1890985109999","622110","General Medical And Surgical Hospitals","Arkansas","185","Non-Profit","152","http://www.arkansassiteselection.com/aedc/gis-data-download.aspx","2012-06-27T00:00:00.000Z","05","AR","Arkansas","040042","CLOSED","(870) 735-1500",,,"GENERAL ACUTE CARE","2014-02-10T00:00:00.000Z","IMAGERY/OTHER","http://www.crittendenregional.org/","72301",
"Clay, Arkansas, US",,"1206 Gordon Duckworth Drive",,"25","Piggott","USA","Clay","05021","Y","0002372454","36.390119473","-90.20483796","622110","General Medical And Surgical Hospitals","Arkansas","189","Government - Local","25","http://www.healthy.arkansas.gov/programsServices/hsLicensingRegulation/HealthFacilityServices/Pages/ProviderLists.aspx","2018-08-08T00:00:00.000Z","05","AR","Arkansas","041330","OPEN","(870) 598-3881","LEVEL IV",,"CRITICAL ACCESS","2014-02-10T00:00:00.000Z","IMAGERY","http://www.piggottcommunityhospital.com","72454",
"Conway, Arkansas, US",,"4 Hospital Drive",,"35","Morrilton","USA","Conway","05029","Y","0002472110","35.168014912","-92.721351317","622110","General Medical And Surgical Hospitals","Arkansas","191","Non-Profit","35","http://www.healthy.arkansas.gov/programsServices/hsLicensingRegulation/HealthFacilityServices/Pages/ProviderLists.aspx","2018-08-08T00:00:00.000Z","05","AR","Arkansas","041324","OPEN","(501) 977-2300","LEVEL IV",,"CRITICAL ACCESS","2014-02-10T00:00:00.000Z","IMAGERY/OTHER","https://www.stvincenthealth.com/morrilton/","72110",
"Jefferson, Arkansas, US",,"7500 Corrections Circle",,"27","Pine Bluff","USA","Jefferson","05069","N","0003971603","34.2221914250001","-92.082686048","622110","General Medical And Surgical Hospitals","Arkansas","200","Government - State","27","http://www.healthy.arkansas.gov/programsServices/hsLicensingRegulation/HealthFacilityServices/Pages/ProviderLists.aspx","2018-08-08T00:00:00.000Z","05","AR","Arkansas","040999","OPEN","(870) 267-6450",,,"GENERAL ACUTE CARE","2013-09-18T00:00:00.000Z","IMAGERY","http://adc.arkansas.gov/Pages/default.aspx","71603",
"Hot Spring, Arkansas, US",,"1001 Schneider Drive",,"72","Malvern","USA","Hot Spring","05059","Y","0006600000","34.358774038","-92.785888401","622110","General Medical And Surgical Hospitals","Arkansas","199","Proprietary","72","http://www.healthy.arkansas.gov/programsServices/hsLicensingRegulation/HealthFacilityServices/Pages/ProviderLists.aspx","2018-08-08T00:00:00.000Z","05","AR","Arkansas","040076","OPEN","(501) 332-1000","LEVEL IV",,"GENERAL ACUTE CARE","2014-02-10T00:00:00.000Z","IMAGERY/OTHER","http://www.hscmc.org/","72104",
"Garland, Arkansas, US",,"300 Werner Street",,"289","Hot Springs","USA","Garland","05051","Y","0005971913","34.46802567","-93.066270414","622110","General Medical And Surgical Hospitals","Arkansas","198","Non-Profit","289","http://www.healthy.arkansas.gov/programsServices/hsLicensingRegulation/HealthFacilityServices/Pages/ProviderLists.aspx","2018-08-08T00:00:00.000Z","05","AR","Arkansas","040026","OPEN","(501) 622-1120","LEVEL II",,"GENERAL ACUTE CARE","2014-02-10T00:00:00.000Z","IMAGERY/OTHER","http://www.chistvincent.com/Hospitals/st-vincent-hot-springs","71913",
"Cleburne, Arkansas, US",,"1800 Bypass Road",,"25","Heber Springs","USA","Cleburne","05023","Y","0001372543","35.488569576","-92.057981141","622110","General Medical And Surgical Hospitals","Arkansas","190","Non-Profit","25","http://www.healthy.arkansas.gov/programsServices/hsLicensingRegulation/HealthFacilityServices/Pages/ProviderLists.aspx","2018-08-08T00:00:00.000Z","05","AR","Arkansas","041312","OPEN","(501) 887-3000","LEVEL IV",,"CRITICAL ACCESS","2014-02-10T00:00:00.000Z","IMAGERY","http://www.baptist-health.com/maps-directions/bhmc-heber-springs","72543",
"Garland, Arkansas, US",,"105 Reserve Street",,"35","Hot Springs","USA","Garland","05051","N","0004671901","34.5121250130001","-93.052607872","622310","Rehabilitation Hospitals (Except Alcoholism, Drug Addiction)","Arkansas","197","Government - State","35","http://www.arkansassiteselection.com/aedc/gis-data-download.aspx","2012-06-27T00:00:00.000Z","05","AR","Arkansas","043027","CLOSED","(501) 624-4411",,,"REHABILITATION","2014-02-10T00:00:00.000Z","IMAGERY",,"71901",
"Garland, Arkansas, US",,"300 Prospect Avenue",,"89","Hot Springs","USA","Garland","05051","N","0001971901","34.5098970650001","-93.057577489","622110","General Medical And Surgical Hospitals","Arkansas","196","Non-Profit","89","http://www.healthy.arkansas.gov/programsServices/hsLicensingRegulation/HealthFacilityServices/Pages/ProviderLists.aspx","2018-08-08T00:00:00.000Z","05","AR","Arkansas","040132","OPEN","(501) 624-1281",,,"GENERAL ACUTE CARE","2014-02-10T00:00:00.000Z","IMAGERY","http://www.levihospital.com","71901",
"Pulaski, Arkansas, US",,"1601 Murphy Drive",,"60","Maumelle","USA","Pulaski","05119","N","0006972113","34.8764356660001","-92.394413249","622210","Psychiatric And Substance Abuse Hospitals","Arkansas","194","Non-Profit","60","http://www.healthy.arkansas.gov/programsServices/hsLicensingRegulation/HealthFacilityServices/Pages/ProviderLists.aspx","2018-08-08T00:00:00.000Z","05","AR","Arkansas","044017","OPEN","(501) 803-3388",,,"PSYCHIATRIC","2014-02-10T00:00:00.000Z","IMAGERY/OTHER","http://www.umch.org","72113",
"Chicot, Arkansas, US",,"2729A Hwy 65 & 82 S",,"15","Lake Village","USA","Chicot","05017","Y","0002871653","33.306293968","-91.289589924","622310","Rehabilitation Hospitals (Except Alcoholism, Drug Addiction)","Arkansas","181","Proprietary","15","http://www.healthy.arkansas.gov/programsServices/hsLicensingRegulation/HealthFacilityServices/Pages/ProviderLists.aspx","2018-08-08T00:00:00.000Z","05","AR","Arkansas","043034","OPEN","(870) 265-5343",,,"REHABILITATION","2014-03-12T00:00:00.000Z","IMAGERY/OTHER","http://www.lakevillageclinic.com/SErehabhosp.html","71653",
"Pulaski, Arkansas, US",,"3333 Springhill Drive",,"248","Little Rock","USA","Pulaski","05119","Y","0005000000","34.7836548870001","-92.223409163","622110","General Medical And Surgical Hospitals","Arkansas","193","Non-Profit","248","http://www.healthy.arkansas.gov/programsServices/hsLicensingRegulation/HealthFacilityServices/Pages/ProviderLists.aspx","2018-08-08T00:00:00.000Z","05","AR","Arkansas","040036","OPEN","(501) 202-3000","LEVEL III",,"GENERAL ACUTE CARE","2014-02-10T00:00:00.000Z","IMAGERY/OTHER","https://www.baptist-health.com/locations/accesspoint.aspx?accessPointID=190","72117",
"Pulaski, Arkansas, US",,"4301 West Markham Street",,"400","Little Rock","USA","Pulaski","05119","Y","0003072205","34.7490251460001","-92.320137314","622110","General Medical And Surgical Hospitals","Arkansas","192","Government - State","400","http://www.healthy.arkansas.gov/programsServices/hsLicensingRegulation/HealthFacilityServices/Pages/ProviderLists.aspx","2018-08-08T00:00:00.000Z","05","AR","Arkansas","040016","OPEN","(501) 686-5000","LEVEL I",,"GENERAL ACUTE CARE","2014-02-10T00:00:00.000Z","IMAGERY/OTHER","http://www.uamshealth.com/?id=1&sid=1","72205",
"Jefferson, Arkansas, US",,"1600 West 40Th Avenue",,"471","Pine Bluff","USA","Jefferson","05069","Y","0006871603","34.1877346910001","-92.017680195","622110","General Medical And Surgical Hospitals","Arkansas","201","Non-Profit","471","http://www.healthy.arkansas.gov/programsServices/hsLicensingRegulation/HealthFacilityServices/Pages/ProviderLists.aspx","2018-08-08T00:00:00.000Z","05","AR","Arkansas","040071","OPEN","(870) 541-7100","LEVEL III",,"GENERAL ACUTE CARE","2014-02-10T00:00:00.000Z","IMAGERY/OTHER","http://www.jrmc.org","71603",
"Carroll, Arkansas, US",,"24 Norris Street",,"22","Eureka Springs","USA","Carroll","05015","Y","0001072632","36.400163789","-93.744235921","622110","General Medical And Surgical Hospitals","Arkansas","180","Proprietary","22","http://www.healthy.arkansas.gov/programsServices/hsLicensingRegulation/HealthFacilityServices/Pages/ProviderLists.aspx","2018-08-08T00:00:00.000Z","05","AR","Arkansas","041304","OPEN","(479) 253-7400","LEVEL IV",,"CRITICAL ACCESS","2014-03-12T00:00:00.000Z","IMAGERY/OTHER","http://www.eurekaspringshospital.com","72632",
"Pulaski, Arkansas, US",,"5201 North Shore Drive",,"16","North Little Rock","USA","Pulaski","05119","N","0005300000","34.8002103910001","-92.3488871549999","622310","Specialty (Except Psychiatric And Substance Abuse) Hospitals","Arkansas","5567","Proprietary","16","http://www.healthy.arkansas.gov/programsServices/hsLicensingRegulation/HealthFacilityServices/Pages/ProviderLists.aspx","2018-08-08T00:00:00.000Z","05","AR","Arkansas","040147","OPEN","(501) 748-8000",,,"SPECIAL","2014-02-10T00:00:00.000Z","IMAGERY/OTHER","http://www.ArkSurgicalHospital.com","72118",
"Clark, Arkansas, US",,"3050 Twin Rivers Drive",,"25","Arkadelphia","USA","Clark","05019","Y","0002271923","34.1229135660001","-93.088824163","622110","General Medical And Surgical Hospitals","Arkansas","178","Non-Profit","25","http://www.healthy.arkansas.gov/programsServices/hsLicensingRegulation/HealthFacilityServices/Pages/ProviderLists.aspx","2018-08-08T00:00:00.000Z","05","AR","Arkansas","041321","OPEN","(870) 245-2622","LEVEL IV",,"CRITICAL ACCESS","2014-02-10T00:00:00.000Z","IMAGERY/OTHER","http://www.baptist-health.com/locations/accesspoint.aspx?accessPointID=187","71923",
"Pulaski, Arkansas, US",,"4300 West 7Th Street",,,"Little Rock","USA","Pulaski","05119","N","0175872205","34.7460360000001","-92.320213","622110","General Medical And Surgical Hospitals","Arkansas","3884","Government - Federal",,"https://www.va.gov/directory/guide/allstate.asp","2018-09-26T00:00:00.000Z","05","AR","Arkansas",,"OPEN","(501) 257-1000",,,"MILITARY","2019-05-09T00:00:00.000Z","IMAGERY","https://www.littlerock.va.gov/","72205",
"Washington, Arkansas, US",,"1100 North College Avenue",,,"Fayetteville","USA","Washington","05143","Y","0181172703","36.081419","-94.160127","622110","General Medical And Surgical Hospitals","Arkansas","3885","Government - Federal",,"https://www.va.gov/directory/guide/allstate.asp","2018-09-26T00:00:00.000Z","05","AR","Arkansas",,"OPEN","(479) 443-4301",,,"MILITARY","2019-05-09T00:00:00.000Z","IMAGERY","https://www.fayettevillear.va.gov/","72703",
"Hempstead, Arkansas, US",,"2001 South Main Street",,"79","Hope","USA","Hempstead","05057","Y","0006371801","33.6481790820001","-93.584416126","622110","General Medical And Surgical Hospitals","Arkansas","5568","Proprietary","79","http://www.healthy.arkansas.gov/programsServices/hsLicensingRegulation/HealthFacilityServices/Pages/ProviderLists.aspx","2018-08-08T00:00:00.000Z","05","AR","Arkansas","040091","OPEN","(870) 722-3800",,,"GENERAL ACUTE CARE","2014-02-10T00:00:00.000Z","IMAGERY/OTHER","http://www.wadleyhealthathope.com","71801",
"Howard, Arkansas, US",,"130 Medical Circle",,,"Nashville","USA","Howard","05061","Y","0064371852","33.949722756","-93.880549176","622110","General Medical And Surgical Hospitals","Arkansas","4985",,,"http://www.healthy.arkansas.gov/programsServices/hsLicensingRegulation/HealthFacilityServices/Pages/ProviderLists.aspx","2018-08-08T00:00:00.000Z","05","AR","Arkansas",,"OPEN","(870) 845-4400","LEVEL IV",,"GENERAL ACUTE CARE","2014-12-02T00:00:00.000Z","IMAGERY/OTHER",,"71852",
"Craighead, Arkansas, US",,"3024 Stadium Boulevard",,,"Jonesboro","USA","Craighead","05031","Y","0061472401","35.8082257240001","-90.666340422","622110","General Medical And Surgical Hospitals","Arkansas","4984","Non-Profit",,"ftp://ftp.geostor.arkansas.gov","2014-09-18T00:00:00.000Z","05","AR","Arkansas",,"CLOSED","(870) 972-7000",,,"GENERAL ACUTE CARE","2014-11-18T00:00:00.000Z","IMAGERY/OTHER",,"72401",
"Benton, Arkansas, US",,"1200 West Walnut Street",,"165","Rogers","USA","Benton","05007","Y","0002072756","36.3331553250001","-94.134007821","622110","General Medical And Surgical Hospitals","Arkansas","4983","Non-Profit","165","http://www.arkansassiteselection.com/aedc/gis-data-download.aspx","2012-06-27T00:00:00.000Z","05","AR","Arkansas","040010","CLOSED","(479) 636-0200",,,"GENERAL ACUTE CARE","2014-02-10T00:00:00.000Z","IMAGERY/OTHER","http://www.bentoncountyar.gov/BCAdminSecond.aspx?m=HDHealthService","72756",
"Benton, Arkansas, US",,"3000 Medical Center Parkway",,"128","Bentonville","USA","Benton","05007","Y","0000400000","36.339906334","-94.191356904","622110","General Medical And Surgical Hospitals","Arkansas","4982","Proprietary","128","http://www.healthy.arkansas.gov/programsServices/hsLicensingRegulation/HealthFacilityServices/Pages/ProviderLists.aspx","2018-08-08T00:00:00.000Z","05","AR","Arkansas","040138","OPEN","(479) 553-1000","LEVEL III",,"GENERAL ACUTE CARE","2014-02-10T00:00:00.000Z","IMAGERY/OTHER","http://www.northwesthealth.com/Pages/home.aspx","72712",
"Washington, Arkansas, US",,"3215 North Northhills Boulevard",,"366","Fayetteville","USA","Washington","05143","Y","0009500000","36.1092826170001","-94.160051564","622110","General Medical And Surgical Hospitals","Arkansas","4981","Non-Profit","366","http://www.healthy.arkansas.gov/programsServices/hsLicensingRegulation/HealthFacilityServices/Pages/ProviderLists.aspx","2018-08-08T00:00:00.000Z","05","AR","Arkansas","040004","OPEN","(479) 713-1000","LEVEL II",,"GENERAL ACUTE CARE","2014-02-10T00:00:00.000Z","IMAGERY/OTHER","http://www.wregional.com","72703",
"Washington, Arkansas, US",,"1125 North College Avenue",,"25","Fayetteville","USA","Washington","05143","Y","0009472701","36.077767684","-94.158409241","622110","General Medical And Surgical Hospitals","Arkansas","4980","Proprietary","25","http://www.arkansassiteselection.com/aedc/gis-data-download.aspx","2012-06-27T00:00:00.000Z","05","AR","Arkansas","042009","CLOSED","(479) 713-7000",,,"GENERAL ACUTE CARE","2014-02-10T00:00:00.000Z","IMAGERY/OTHER","http://www.regencyhospital.com","72701",
"Independence, Arkansas, US",,"1710 Harrison Street",,"199","Batesville","USA","Independence","05063","Y","0006772501","35.767869262","-91.6345909839999","622110","General Medical And Surgical Hospitals","Arkansas","4979","Non-Profit","199","http://www.healthy.arkansas.gov/programsServices/hsLicensingRegulation/HealthFacilityServices/Pages/ProviderLists.aspx","2018-08-08T00:00:00.000Z","05","AR","Arkansas","040119","OPEN","(870) 262-1200","LEVEL III",,"GENERAL ACUTE CARE","2014-02-10T00:00:00.000Z","IMAGERY/OTHER","http://www.whiteriverhealthsystem.com","72501",
"Greene, Arkansas, US",,"900 West Kingshighway",,"129","Paragould","USA","Greene","05055","Y","0006272450","36.0519443060001","-90.498457036","622110","General Medical And Surgical Hospitals","Arkansas","4978","Non-Profit","129","http://www.healthy.arkansas.gov/programsServices/hsLicensingRegulation/HealthFacilityServices/Pages/ProviderLists.aspx","2018-08-08T00:00:00.000Z","05","AR","Arkansas","040039","OPEN","(870) 239-7000","LEVEL IV",,"GENERAL ACUTE CARE","2014-02-10T00:00:00.000Z","IMAGERY/OTHER","http://www.arkansasmethodist.org","72450",
"Pope, Arkansas, US",,"1808 West Main Street",,"170","Russellville","USA","Pope","05115","Y","0007272801","35.283555461","-93.150077965","622110","General Medical And Surgical Hospitals","Arkansas","4977","Proprietary","170","http://www.healthy.arkansas.gov/programsServices/hsLicensingRegulation/HealthFacilityServices/Pages/ProviderLists.aspx","2018-08-08T00:00:00.000Z","05","AR","Arkansas","040041","OPEN","(479) 968-2841","LEVEL III",,"GENERAL ACUTE CARE","2014-02-10T00:00:00.000Z","IMAGERY/OTHER","http://www.saintmarysregional.com","72801",
"Fulton, Arkansas, US",,"679 North Main Street",,"25","Salem","USA","Fulton","05049","Y","0001172576","36.3829008770001","-91.810307945","622110","General Medical And Surgical Hospitals","Arkansas","4976","Government - Local","25","http://www.healthy.arkansas.gov/programsServices/hsLicensingRegulation/HealthFacilityServices/Pages/ProviderLists.aspx","2018-08-08T00:00:00.000Z","05","AR","Arkansas","041322","OPEN","(870) 895-2691","LEVEL IV",,"CRITICAL ACCESS","2014-03-12T00:00:00.000Z","IMAGERY","http://www.fultoncountyhospital.org","72576",
"Carroll, Arkansas, US",,"214 Carter Street",,"25","Berryville","USA","Carroll","05015","Y","0000872616","36.359062103","-93.551825772","622110","General Medical And Surgical Hospitals","Arkansas","179","Non-Profit","25","http://www.healthy.arkansas.gov/programsServices/hsLicensingRegulation/HealthFacilityServices/Pages/ProviderLists.aspx","2018-08-08T00:00:00.000Z","05","AR","Arkansas","041329","OPEN","(870) 423-3355",,,"CRITICAL ACCESS","2014-03-12T00:00:00.000Z","IMAGERY/OTHER","http://www.mercy.net/practice/mercy-hospital-berryville","72616",
